[
    {
      "station_id": "A1",
      "station_name": "Suvarnabhumi ARL",
      "station_line": "arl",
      "station_linecolor": "red",
      "is_extended": false,
      "start_time_1": "00:00:00",
      "start_time_2": "06:20:00",
      "positionX": 4.775,
      "positionY": 3.67,
      "latitude": 13.703119561182797,
      "longitude": 100.75187358910955
    },
    {
      "station_id": "A2",
      "station_name": "Lat Krabang ARL",
      "station_line": "arl",
      "station_linecolor": "red",
      "is_extended": false,
      "start_time_1": "06:15:00",
      "start_time_2": "06:05:00",
      "positionX": 4.69,
      "positionY": 3.46,
      "latitude": 13.734276250159681,
      "longitude": 100.74759724392246
    },
    {
      "station_id": "A3",
      "station_name": "Ban Thap Chang ARL",
      "station_line": "arl",
      "station_linecolor": "red",
      "is_extended": false,
      "start_time_1": "06:20:00",
      "start_time_2": "06:10:00",
      "positionX": 4.39,
      "positionY": 3.46,
      "latitude": 13.727890000318158,
      "longitude": 100.68836206186987
    },
    {
      "station_id": "A4",
      "station_name": "Hua Mak ARL",
      "station_line": "arl",
      "station_linecolor": "red",
      "is_extended": false,
      "start_time_1": "06:18:00",
      "start_time_2": "06:14:00",
      "positionX": 4.09,
      "positionY": 3.46,
      "latitude": 13.746004409350032,
      "longitude": 100.64560053511678
    },
    {
      "station_id": "A5",
      "station_name": "Ramkhamhaeng ARL",
      "station_line": "arl",
      "station_linecolor": "red",
      "is_extended": false,
      "start_time_1": "06:34:00",
      "start_time_2": "06:18:00",
      "positionX": 3.565,
      "positionY": 3.46,
      "latitude": 13.749561204985838,
      "longitude": 100.60109728071038
    },
    {
      "station_id": "A6",
      "station_name": "Makkasan ARL",
      "station_line": "arl",
      "station_linecolor": "red",
      "is_extended": false,
      "start_time_1": "06:30:00",
      "start_time_2": "06:22:00",
      "positionX": 3.01,
      "positionY": 3.46,
      "latitude": 13.75835007181401,
      "longitude": 100.56076481053812
    },
    {
      "station_id": "A7",
      "station_name": "Ratchaprarop ARL",
      "station_line": "arl",
      "station_linecolor": "red",
      "is_extended": false,
      "start_time_1": "06:27:00",
      "start_time_2": "06:25:00",
      "positionX": 2.745,
      "positionY": 3.46,
      "latitude": 13.761253848376082,
      "longitude": 100.54256523334259
    },
    {
      "station_id": "A8",
      "station_name": "Phaya Thai ARL",
      "station_line": "arl",
      "station_linecolor": "red",
      "is_extended": false,
      "start_time_1": "06:26:00",
      "start_time_2": "00:00:00",
      "positionX": 2.49,
      "positionY": 3.46,
      "latitude": 13.763686630249191,
      "longitude": 100.53387434233079
    },
    {
      "station_id": "BL01",
      "station_name": "Tha Phra MRT",
      "station_line": "mrt",
      "station_linecolor": "blue",
      "is_extended": false,
      "start_time_1": "05:43:00",
      "start_time_2": "05:43:00",
      "start_time_3": "05:43:00",
      "positionX": 2.49,
      "positionY": 3.46,
      "latitude": 13.731494442817219,
      "longitude": 100.4737739810618
    },
    {
      "station_id": "BL02",
      "station_name": "Charan 13 MRT",
      "station_line": "mrt",
      "station_linecolor": "blue",
      "is_extended": false,
      "start_time_1": "05:38:00",
      "start_time_2": "05:40:00",
      "positionX": 2.49,
      "positionY": 3.46,
      "latitude": 13.744401607301901,
      "longitude": 100.4711395266396
    },
    {
      "station_id": "BL03",
      "station_name": "Fai Chai MRT",
      "station_line": "mrt",
      "station_linecolor": "blue",
      "is_extended": false,
      "start_time_1": "05:41:00",
      "start_time_2": "05:42:00",
      "positionX": 2.49,
      "positionY": 3.46,
      "latitude": 13.754260567319378,
      "longitude": 100.46907428137094
    },
    {
      "station_id": "BL04",
      "station_name": "Bang Khun Non MRT",
      "station_line": "mrt",
      "station_linecolor": "blue",
      "is_extended": false,
      "start_time_1": "05:43:00",
      "start_time_2": "05:47:00",
      "positionX": 2.49,
      "positionY": 3.46,
      "latitude": 13.766710663842208,
      "longitude": 100.4740320496383
    },
    {
      "station_id": "BL05",
      "station_name": "Bang Yi Khan MRT",
      "station_line": "mrt",
      "station_linecolor": "blue",
      "is_extended": false,
      "start_time_1": "05:46:00",
      "start_time_2": "05:49:00",
      "positionX": 2.49,
      "positionY": 3.46,
      "latitude": 13.775785491167852,
      "longitude": 100.485663927079
    },
    {
      "station_id": "BL06",
      "station_name": "Sirindhorn MRT",
      "station_line": "mrt",
      "station_linecolor": "blue",
      "is_extended": false,
      "start_time_1": "05:47:00",
      "start_time_2": "05:47:00",
      "positionX": 2.49,
      "positionY": 3.46,
      "latitude": 13.783803275981889,
      "longitude": 100.49507269533747
    },
    {
      "station_id": "BL07",
      "station_name": "Bang Phlat MRT",
      "station_line": "mrt",
      "station_linecolor": "blue",
      "is_extended": false,
      "start_time_1": "05:50:00",
      "start_time_2": "05:50:00",
      "positionX": 2.49,
      "positionY": 3.46,
      "latitude": 13.792203376416715,
      "longitude": 100.50458398180554
    },
    {
      "station_id": "BL08",
      "station_name": "Bang O MRT",
      "station_line": "mrt",
      "station_linecolor": "blue",
      "is_extended": false,
      "start_time_1": "05:51:00",
      "start_time_2": "05:55:00",
      "positionX": 2.49,
      "positionY": 3.46,
      "latitude": 13.79690559814871,
      "longitude": 100.51213666369202
    },
    {
      "station_id": "BL09",
      "station_name": "Bang Pho MRT",
      "station_line": "mrt",
      "station_linecolor": "blue",
      "is_extended": false,
      "start_time_1": "05:54:00",
      "start_time_2": "05:58:00",
      "positionX": 2.49,
      "positionY": 3.46,
      "latitude": 13.806249477153719,
      "longitude": 100.52047498197255
    },
    {
      "station_id": "BL10",
      "station_name": "Tao Poon MRT",
      "station_line": "mrt",
      "station_linecolor": "blue",
      "is_extended": false,
      "start_time_1": "05:56:00",
      "start_time_2": "05:56:00",
      "positionX": 2.49,
      "positionY": 3.46,
      "latitude": 13.806884887217254,
      "longitude": 100.53045198196823
    },
    {
      "station_id": "BL11",
      "station_name": "Bang Sue MRT",
      "station_line": "mrt",
      "station_linecolor": "blue",
      "is_extended": false,
      "start_time_1": "05:58:00",
      "start_time_2": "05:54:00",
      "positionX": 2.49,
      "positionY": 3.46,
      "latitude": 13.802877876975662,
      "longitude": 100.53967692738516
    },
    {
      "station_id": "BL12",
      "station_name": "Kamphaeng Phet MRT",
      "station_line": "mrt",
      "station_linecolor": "blue",
      "is_extended": false,
      "start_time_1": "05:53:00",
      "start_time_2": "05:56:00",
      "positionX": 2.49,
      "positionY": 3.46,
      "latitude": 13.796887728047047,
      "longitude": 100.54793332732578
    },
    {
      "station_id": "BL13",
      "station_name": "Chatuchak Park MRT",
      "station_line": "mrt",
      "station_linecolor": "blue",
      "is_extended": false,
      "start_time_1": "05:55:00",
      "start_time_2": "05:55:00",
      "positionX": 2.49,
      "positionY": 3.46,
      "latitude": 13.804379922895247,
      "longitude": 100.55346668192652
    },
    {
      "station_id": "BL14",
      "station_name": "Phahon Yothin MRT",
      "station_line": "mrt",
      "station_linecolor": "blue",
      "is_extended": false,
      "start_time_1": "05:58:00",
      "start_time_2": "05:56:00",
      "positionX": 2.49,
      "positionY": 3.46,
      "latitude": 13.813016555265865,
      "longitude": 100.56155281070602
    },
    {
      "station_id": "BL15",
      "station_name": "Lat Phrao MRT",
      "station_line": "mrt",
      "station_linecolor": "blue",
      "is_extended": false,
      "start_time_1": "05:53:00",
      "start_time_2": "05:54:00",
      "positionX": 2.49,
      "positionY": 3.46,
      "latitude": 13.805605272900033,
      "longitude": 100.57475547287423
    },
    {
      "station_id": "BL16",
      "station_name": "Ratchadaphisek MRT",
      "station_line": "mrt",
      "station_linecolor": "blue",
      "is_extended": false,
      "start_time_1": "05:55:00",
      "start_time_2": "05:55:00",
      "positionX": 2.49,
      "positionY": 3.46,
      "latitude": 13.800278043165648,
      "longitude": 100.57391105915534
    },
    {
      "station_id": "BL17",
      "station_name": "Sutthisan MRT",
      "station_line": "mrt",
      "station_linecolor": "blue",
      "is_extended": false,
      "start_time_1": "05:57:00",
      "start_time_2": "05:54:00",
      "positionX": 2.49,
      "positionY": 3.46,
      "latitude": 13.788136690085652,
      "longitude": 100.57452332722174
    },
    {
      "station_id": "BL18",
      "station_name": "Huai Khwang MRT",
      "station_line": "mrt",
      "station_linecolor": "blue",
      "is_extended": false,
      "start_time_1": "05:59:00",
      "start_time_2": "05:55:00",
      "positionX": 2.49,
      "positionY": 3.46,
      "latitude": 13.778281975698498,
      "longitude": 100.57300145891378
    },
    {
      "station_id": "BL19",
      "station_name": "Thailand Cultural Centre MRT",
      "station_line": "mrt",
      "station_linecolor": "blue",
      "is_extended": false,
      "start_time_1": "05:54:00",
      "start_time_2": "05:53:00",
      "positionX": 2.49,
      "positionY": 3.46,
      "latitude": 13.765702913863889,
      "longitude": 100.5730136860319
    },
    {
      "station_id": "BL20",
      "station_name": "Phra Ram 9 MRT",
      "station_line": "mrt",
      "station_linecolor": "blue",
      "is_extended": false,
      "start_time_1": "05:56:00",
      "start_time_2": "05:55:00",
      "positionX": 2.49,
      "positionY": 3.46,
      "latitude": 13.757743095140178,
      "longitude": 100.56440075865818
    },
    {
      "station_id": "BL21",
      "station_name": "Phetchaburi MRT",
      "station_line": "mrt",
      "station_linecolor": "blue",
      "is_extended": false,
      "start_time_1": "05:58:00",
      "start_time_2": "05:53:00",
      "positionX": 2.49,
      "positionY": 3.46,
      "latitude": 13.747158126501581,
      "longitude": 100.56519404037115
    },
    {
      "station_id": "BL22",
      "station_name": "Sukhumvit MRT",
      "station_line": "mrt",
      "station_linecolor": "blue",
      "is_extended": false,
      "start_time_1": "05:53:00",
      "start_time_2": "05:59:00",
      "positionX": 2.49,
      "positionY": 3.46,
      "latitude": 13.737349470330004,
      "longitude": 100.5617881266193
    },
    {
      "station_id": "BL23",
      "station_name": "Queen Sirikit National Convention Centre MRT",
      "station_line": "mrt",
      "station_linecolor": "blue",
      "is_extended": false,
      "start_time_1": "05:55:00",
      "start_time_2": "05:56:00",
      "positionX": 2.49,
      "positionY": 3.46,
      "latitude": 13.723215517771417,
      "longitude": 100.56108817188499
    },
    {
      "station_id": "BL24",
      "station_name": "Khlong Toei MRT",
      "station_line": "mrt",
      "station_linecolor": "blue",
      "is_extended": false,
      "start_time_1": "05:54:00",
      "start_time_2": "05:55:00",
      "positionX": 2.49,
      "positionY": 3.46,
      "latitude": 13.721450924978273,
      "longitude": 100.55679608551162
    },
    {
      "station_id": "BL25",
      "station_name": "Lumphini MRT",
      "station_line": "mrt",
      "station_linecolor": "blue",
      "is_extended": false,
      "start_time_1": "05:56:00",
      "start_time_2": "05:53:00",
      "positionX": 2.49,
      "positionY": 3.46,
      "latitude": 13.72433359548904,
      "longitude": 100.54366989011113
    },
    {
      "station_id": "BL26",
      "station_name": "Si Lom MRT",
      "station_line": "mrt",
      "station_linecolor": "blue",
      "is_extended": false,
      "start_time_1": "05:54:00",
      "start_time_2": "05:57:00",
      "positionX": 2.49,
      "positionY": 3.46,
      "latitude": 13.72740679928504,
      "longitude": 100.53648390378315
    },
    {
      "station_id": "BL27",
      "station_name": "Sam Yan MRT",
      "station_line": "mrt",
      "station_linecolor": "blue",
      "is_extended": false,
      "start_time_1": "05:56:00",
      "start_time_2": "05:56:00",
      "positionX": 2.49,
      "positionY": 3.46,
      "latitude": 13.733327898225664,
      "longitude": 100.5298511038217
    },
    {
      "station_id": "BL28",
      "station_name": "Hua Lamphong MRT",
      "station_line": "mrt",
      "station_linecolor": "blue",
      "is_extended": false,
      "start_time_1": "05:55:00",
      "start_time_2": "05:53:00",
      "positionX": 2.49,
      "positionY": 3.46,
      "latitude": 13.735994160776018,
      "longitude": 100.51818117206385
    },
    {
      "station_id": "BL29",
      "station_name": "Wat Mangkon MRT",
      "station_line": "mrt",
      "station_linecolor": "blue",
      "is_extended": false,
      "start_time_1": "05:53:00",
      "start_time_2": "05:51:00",
      "positionX": 2.49,
      "positionY": 3.46,
      "latitude": 13.741822673875278,
      "longitude": 100.5100464039341
    },
    {
      "station_id": "BL30",
      "station_name": "Sam Yot MRT",
      "station_line": "mrt",
      "station_linecolor": "blue",
      "is_extended": false,
      "start_time_1": "05:52:00",
      "start_time_2": "05:50:00",
      "positionX": 2.49,
      "positionY": 3.46,
      "latitude": 13.746956374126938,
      "longitude": 100.50168508126856
    },
    {
      "station_id": "BL31",
      "station_name": "Sanam Chai MRT",
      "station_line": "mrt",
      "station_linecolor": "blue",
      "is_extended": false,
      "start_time_1": "05:50:00",
      "start_time_2": "05:48:00",
      "positionX": 2.49,
      "positionY": 3.46,
      "latitude": 13.745040441326811,
      "longitude": 100.49489422668276
    },
    {
      "station_id": "BL32",
      "station_name": "Itsaraphap MRT",
      "station_line": "mrt",
      "station_linecolor": "blue",
      "is_extended": false,
      "start_time_1": "05:47:00",
      "start_time_2": "05:45:00",
      "positionX": 2.49,
      "positionY": 3.46,
      "latitude": 13.737211969736327,
      "longitude": 100.48638357207038
    },
    {
      "station_id": "BL33",
      "station_name": "Bang Phai MRT",
      "station_line": "mrt",
      "station_linecolor": "blue",
      "is_extended": false,
      "start_time_1": "05:41:00",
      "start_time_2": "05:41:00",
      "positionX": 2.49,
      "positionY": 3.46,
      "latitude": 13.723863431952067,
      "longitude": 100.4644832582767
    },
    {
      "station_id": "BL34",
      "station_name": "Bang Wa MRT",
      "station_line": "mrt",
      "station_linecolor": "blue",
      "is_extended": false,
      "start_time_1": "05:42:00",
      "start_time_2": "05:39:00",
      "positionX": 2.49,
      "positionY": 3.46,
      "latitude": 13.72058972511087,
      "longitude": 100.45661208094856
    },
    {
      "station_id": "BL35",
      "station_name": "Phetkasem 48 MRT",
      "station_line": "mrt",
      "station_linecolor": "blue",
      "is_extended": false,
      "start_time_1": "05:44:00",
      "start_time_2": "05:36:00",
      "positionX": 2.49,
      "positionY": 3.46,
      "latitude": 13.714615005226165,
      "longitude": 100.44591732634639
    },
    {
      "station_id": "BL36",
      "station_name": "Phasi Charoen MRT",
      "station_line": "mrt",
      "station_linecolor": "blue",
      "is_extended": false,
      "start_time_1": "05:39:00",
      "start_time_2": "05:34:00",
      "positionX": 2.49,
      "positionY": 3.46,
      "latitude": 13.711785860075315,
      "longitude": 100.43660823994865
    },
    {
      "station_id": "BL37",
      "station_name": "Bang Khae MRT",
      "station_line": "mrt",
      "station_linecolor": "blue",
      "is_extended": false,
      "start_time_1": "05:34:00",
      "start_time_2": "05:32:00",
      "positionX": 2.49,
      "positionY": 3.46,
      "latitude": 13.711302933800036,
      "longitude": 100.423317871756
    },
    {
      "station_id": "BL38",
      "station_name": "Lak Song MRT",
      "station_line": "mrt",
      "station_linecolor": "blue",
      "is_extended": false,
      "start_time_1": "00:00:00",
      "start_time_2": "05:30:00",
      "positionX": 2.49,
      "positionY": 3.46,
      "latitude": 13.71083020192932,
      "longitude": 100.40940976652891
    },
    {
      "station_id": "CEN",
      "station_name": "Siam BTS",
      "station_line": "bts",
      "station_linecolor": "lightgreen",
      "is_extended": false,
      "start_time_1": "05:29:00",
      "start_time_2": "05:43:00",
      "start_time_3": "05:31:00",
      "start_time_4": "05:54:00",
      "positionX": 2.49,
      "positionY": 3.46,
      "latitude": 13.74608775379938,
      "longitude": 100.53401578125037
    },
    {
      "station_id": "E1",
      "station_name": "Chit Lom BTS",
      "station_line": "bts",
      "station_linecolor": "lightgreen",
      "is_extended": false,
      "start_time_1": "05:31:00",
      "start_time_2": "05:41:00",
      "positionX": 2.49,
      "positionY": 3.46,
      "latitude": 13.74323128799462,
      "longitude": 100.54507304031672
    },
    {
      "station_id": "E10",
      "station_name": "Bang Chak BTS",
      "station_line": "bts",
      "station_linecolor": "lightgreen",
      "is_extended": false,
      "start_time_1": "05:48:00",
      "start_time_2": "05:24:00",
      "positionX": 2.49,
      "positionY": 3.46,
      "latitude": 13.694583804659615,
      "longitude": 100.60536650339921
    },
    {
      "station_id": "E11",
      "station_name": "Punnawithi BTS",
      "station_line": "bts",
      "station_linecolor": "lightgreen",
      "is_extended": false,
      "start_time_1": "05:49:00",
      "start_time_2": "05:23:00",
      "positionX": 2.49,
      "positionY": 3.46,
      "latitude": 13.689765511196482,
      "longitude": 100.6106807169425
    },
    {
      "station_id": "E12",
      "station_name": "Udomsuk BTS",
      "station_line": "bts",
      "station_linecolor": "lightgreen",
      "is_extended": false,
      "start_time_1": "05:51:00",
      "start_time_2": "05:21:00",
      "positionX": 2.49,
      "positionY": 3.46,
      "latitude": 13.679880240321948,
      "longitude": 100.60940474326465
    },
    {
      "station_id": "E13",
      "station_name": "Bang Na BTS",
      "station_line": "bts",
      "station_linecolor": "lightgreen",
      "is_extended": false,
      "start_time_1": "05:53:00",
      "start_time_2": "05:19:00",
      "positionX": 2.49,
      "positionY": 3.46,
      "latitude": 13.670955254373157,
      "longitude": 100.60465380306147
    },
    {
      "station_id": "E14",
      "station_name": "Bearing BTS",
      "station_line": "bts",
      "station_linecolor": "lightgreen",
      "is_extended": false,
      "start_time_1": "05:55:00",
      "start_time_2": "05:17:00",
      "positionX": 2.49,
      "positionY": 3.46,
      "latitude": 13.660356548889503,
      "longitude": 100.60218242570622
    },
    {
      "station_id": "E15",
      "station_name": "Samrong BTS",
      "station_line": "bts",
      "station_linecolor": "lightgreen",
      "is_extended": true,
      "start_time_1": "05:15:00",
      "start_time_2": "05:15:00",
      "positionX": 2.49,
      "positionY": 3.46,
      "latitude": 13.647680128516765,
      "longitude": 100.59799123917303
    },
    {
      "station_id": "E16",
      "station_name": "Pu Chao BTS",
      "station_line": "bts",
      "station_linecolor": "lightgreen",
      "is_extended": true,
      "start_time_1": "05:16:00",
      "start_time_2": "05:30:00",
      "positionX": 2.49,
      "positionY": 3.46,
      "latitude": 13.639289266833874,
      "longitude": 100.59057091179126
    },
    {
      "station_id": "E17",
      "station_name": "Chang Erawan BTS",
      "station_line": "bts",
      "station_linecolor": "lightgreen",
      "is_extended": true,
      "start_time_1": "05:19:00",
      "start_time_2": "05:27:00",
      "positionX": 2.49,
      "positionY": 3.46,
      "latitude": 13.622463064502767,
      "longitude": 100.58876791160928
    },
    {
      "station_id": "E18",
      "station_name": "Royal Thai Naval Academy BTS",
      "station_line": "bts",
      "station_linecolor": "lightgreen",
      "is_extended": true,
      "start_time_1": "05:22:00",
      "start_time_2": "05:24:00",
      "positionX": 2.49,
      "positionY": 3.46,
      "latitude": 13.606992325810355,
      "longitude": 100.59617589326587
    },
    {
      "station_id": "E19",
      "station_name": "Pak Nam BTS",
      "station_line": "bts",
      "station_linecolor": "lightgreen",
      "is_extended": true,
      "start_time_1": "05:23:00",
      "start_time_2": "05:23:00",
      "positionX": 2.49,
      "positionY": 3.46,
      "latitude": 13.603610829696395,
      "longitude": 100.59670207955925
    },
    {
      "station_id": "E2",
      "station_name": "Phloen Chit BTS",
      "station_line": "bts",
      "station_linecolor": "lightgreen",
      "is_extended": false,
      "start_time_1": "05:33:00",
      "start_time_2": "05:39:00",
      "positionX": 2.49,
      "positionY": 3.46,
      "latitude": 13.743171167713719,
      "longitude": 100.55139396303053
    },
    {
      "station_id": "E20",
      "station_name": "Srinagarindra BTS",
      "station_line": "bts",
      "station_linecolor": "lightgreen",
      "is_extended": true,
      "start_time_1": "05:26:00",
      "start_time_2": "05:20:00",
      "positionX": 2.49,
      "positionY": 3.46,
      "latitude": 13.593246567308775,
      "longitude": 100.60784367945735
    },
    {
      "station_id": "E21",
      "station_name": "Phraek Sa BTS",
      "station_line": "bts",
      "station_linecolor": "lightgreen",
      "is_extended": true,
      "start_time_1": "05:28:00",
      "start_time_2": "05:18:00",
      "positionX": 2.49,
      "positionY": 3.46,
      "latitude": 13.585460937891156,
      "longitude": 100.60902647025586
    },
    {
      "station_id": "E22",
      "station_name": "Sai Luat BTS",
      "station_line": "bts",
      "station_linecolor": "lightgreen",
      "is_extended": true,
      "start_time_1": "05:29:00",
      "start_time_2": "05:17:00",
      "positionX": 2.49,
      "positionY": 3.46,
      "latitude": 13.576995338214633,
      "longitude": 100.60668689290263
    },
    {
      "station_id": "E23",
      "station_name": "Kheha BTS",
      "station_line": "bts",
      "station_linecolor": "lightgreen",
      "is_extended": true,
      "start_time_1": "00:00:00",
      "start_time_2": "05:15:00",
      "positionX": 2.49,
      "positionY": 3.46,
      "latitude": 13.568221149343923,
      "longitude": 100.60489802007211
    },
    {
      "station_id": "E3",
      "station_name": "Nana BTS",
      "station_line": "bts",
      "station_linecolor": "lightgreen",
      "is_extended": false,
      "start_time_1": "05:35:00",
      "start_time_2": "05:38:00",
      "positionX": 2.49,
      "positionY": 3.46,
      "latitude": 13.740329173802378,
      "longitude": 100.55369159028467
    },
    {
      "station_id": "E4",
      "station_name": "Asok BTS",
      "station_line": "bts",
      "station_linecolor": "lightgreen",
      "is_extended": false,
      "start_time_1": "05:36:00",
      "start_time_2": "05:36:00",
      "positionX": 2.49,
      "positionY": 3.46,
      "latitude": 13.736665573624121,
      "longitude": 100.55926601296763
    },
    {
      "station_id": "E5",
      "station_name": "Phrom Phong BTS",
      "station_line": "bts",
      "station_linecolor": "lightgreen",
      "is_extended": false,
      "start_time_1": "05:38:00",
      "start_time_2": "05:34:00",
      "positionX": 2.49,
      "positionY": 3.46,
      "latitude": 13.731677916737103,
      "longitude": 100.57128031742991
    },
    {
      "station_id": "E6",
      "station_name": "Thong Lo BTS",
      "station_line": "bts",
      "station_linecolor": "lightgreen",
      "is_extended": false,
      "start_time_1": "05:40:00",
      "start_time_2": "05:32:00",
      "positionX": 2.49,
      "positionY": 3.46,
      "latitude": 13.724064573017483,
      "longitude": 100.58196603098737
    },
    {
      "station_id": "E7",
      "station_name": "Ekkamai BTS",
      "station_line": "bts",
      "station_linecolor": "lightgreen",
      "is_extended": false,
      "start_time_1": "05:42:00",
      "start_time_2": "05:30:00",
      "positionX": 2.49,
      "positionY": 3.46,
      "latitude": 13.718654116895493,
      "longitude": 100.58685291729954
    },
    {
      "station_id": "E8",
      "station_name": "Phra Khanong BTS",
      "station_line": "bts",
      "station_linecolor": "lightgreen",
      "is_extended": false,
      "start_time_1": "05:44:00",
      "start_time_2": "05:28:00",
      "positionX": 2.49,
      "positionY": 3.46,
      "latitude": 13.714707638796671,
      "longitude": 100.58801879908009
    },
    {
      "station_id": "E9",
      "station_name": "On Nut BTS",
      "station_line": "bts",
      "station_linecolor": "lightgreen",
      "is_extended": false,
      "start_time_1": "05:46:00",
      "start_time_2": "05:26:00",
      "positionX": 2.49,
      "positionY": 3.46,
      "latitude": 13.703728129948757,
      "longitude": 100.60095080350322
    },
    {
      "station_id": "N1",
      "station_name": "Ratchathewi BTS",
      "station_line": "bts",
      "station_linecolor": "lightgreen",
      "is_extended": false,
      "start_time_1": "05:27:00",
      "start_time_2": "05:46:00",
      "positionX": 2.49,
      "positionY": 3.46,
      "latitude": 13.751486892894324,
      "longitude": 100.5319475267789
    },
    {
      "station_id": "N10",
      "station_name": "Phahon Yothin 24 BTS",
      "station_line": "bts",
      "station_linecolor": "lightgreen",
      "is_extended": true,
      "start_time_1": "05:39:00",
      "start_time_2": "05:16:00",
      "positionX": 2.49,
      "positionY": 3.46,
      "latitude": 13.823559999549746,
      "longitude": 100.56539733672993
    },
    {
      "station_id": "N11",
      "station_name": "Ratchayothin BTS",
      "station_line": "bts",
      "station_linecolor": "lightgreen",
      "is_extended": true,
      "start_time_1": "05:38:00",
      "start_time_2": "05:18:00",
      "positionX": 2.49,
      "positionY": 3.46,
      "latitude": 13.830185217953575,
      "longitude": 100.57084727315505
    },
    {
      "station_id": "N12",
      "station_name": "Sena Nikhom BTS",
      "station_line": "bts",
      "station_linecolor": "lightgreen",
      "is_extended": true,
      "start_time_1": "05:36:00",
      "start_time_2": "05:19:00",
      "positionX": 2.49,
      "positionY": 3.46,
      "latitude": 13.837566817479395,
      "longitude": 100.57093072324525
    },
    {
      "station_id": "N13",
      "station_name": "Kasetsart University BTS",
      "station_line": "bts",
      "station_linecolor": "lightgreen",
      "is_extended": true,
      "start_time_1": "05:35:00",
      "start_time_2": "05:21:00",
      "positionX": 2.49,
      "positionY": 3.46,
      "latitude": 13.842830882403867,
      "longitude": 100.57650875967408
    },
    {
      "station_id": "N14",
      "station_name": "Royal Forest Department BTS",
      "station_line": "bts",
      "station_linecolor": "lightgreen",
      "is_extended": true,
      "start_time_1": "05:33:00",
      "start_time_2": "05:23:00",
      "positionX": 2.49,
      "positionY": 3.46,
      "latitude": 13.852519511855522,
      "longitude": 100.58024839159475
    },
    {
      "station_id": "N15",
      "station_name": "Bang Bua BTS",
      "station_line": "bts",
      "station_linecolor": "lightgreen",
      "is_extended": true,
      "start_time_1": "05:32:00",
      "start_time_2": "05:24:00",
      "positionX": 2.49,
      "positionY": 3.46,
      "latitude": 13.855846279855253,
      "longitude": 100.5856202280164
    },
    {
      "station_id": "N16",
      "station_name": "11th Infantry Regiment BTS",
      "station_line": "bts",
      "station_linecolor": "lightgreen",
      "is_extended": true,
      "start_time_1": "05:30:00",
      "start_time_2": "05:26:00",
      "positionX": 2.49,
      "positionY": 3.46,
      "latitude": 13.865221258886157,
      "longitude": 100.59316787360896
    },
    {
      "station_id": "N17",
      "station_name": "Wat Phra Sri Mahathat BTS",
      "station_line": "bts",
      "station_linecolor": "lightgreen",
      "is_extended": true,
      "start_time_1": "05:28:00",
      "start_time_2": "05:28:00",
      "positionX": 2.49,
      "positionY": 3.46,
      "latitude": 13.875483785497229,
      "longitude": 100.59708092824702
    },
    {
      "station_id": "N18",
      "station_name": "Phahon Yothin 59 BTS",
      "station_line": "bts",
      "station_linecolor": "lightgreen",
      "is_extended": true,
      "start_time_1": "05:26:00",
      "start_time_2": "05:30:00",
      "positionX": 2.49,
      "positionY": 3.46,
      "latitude": 13.883118763509941,
      "longitude": 100.6004028828777
    },
    {
      "station_id": "N19",
      "station_name": "Sai Yut BTS",
      "station_line": "bts",
      "station_linecolor": "lightgreen",
      "is_extended": true,
      "start_time_1": "05:25:00",
      "start_time_2": "05:31:00",
      "positionX": 2.49,
      "positionY": 3.46,
      "latitude": 13.889546521901593,
      "longitude": 100.6029240147716
    },
    {
      "station_id": "N2",
      "station_name": "Phaya Thai BTS",
      "station_line": "bts",
      "station_linecolor": "lightgreen",
      "is_extended": false,
      "start_time_1": "05:25:00",
      "start_time_2": "05:47:00",
      "positionX": 2.49,
      "positionY": 3.46,
      "latitude": 13.757884794541479,
      "longitude": 100.53146834502816
    },
    {
      "station_id": "N20",
      "station_name": "Saphan Mai BTS",
      "station_line": "bts",
      "station_linecolor": "lightgreen",
      "is_extended": true,
      "start_time_1": "05:23:00",
      "start_time_2": "05:33:00",
      "positionX": 2.49,
      "positionY": 3.46,
      "latitude": 13.898440918575758,
      "longitude": 100.60631792396468
    },
    {
      "station_id": "N21",
      "station_name": "Bhumibol Adulyadej Hospital BTS",
      "station_line": "bts",
      "station_linecolor": "lightgreen",
      "is_extended": true,
      "start_time_1": "05:21:00",
      "start_time_2": "05:35:00",
      "positionX": 2.49,
      "positionY": 3.46,
      "latitude": 13.909398364801326,
      "longitude": 100.6185052741257
    },
    {
      "station_id": "N22",
      "station_name": "Royal Thai Air Force Museum BTS",
      "station_line": "bts",
      "station_linecolor": "lightgreen",
      "is_extended": true,
      "start_time_1": "05:19:00",
      "start_time_2": "05:37:00",
      "positionX": 2.49,
      "positionY": 3.46,
      "latitude": 13.921349033744823,
      "longitude": 100.62033401512461
    },
    {
      "station_id": "N23",
      "station_name": "Yaek Kor Por Aor BTS",
      "station_line": "bts",
      "station_linecolor": "lightgreen",
      "is_extended": true,
      "start_time_1": "05:17:00",
      "start_time_2": "05:38:00",
      "positionX": 2.49,
      "positionY": 3.46,
      "latitude": 13.925554549296667,
      "longitude": 100.62477533793738
    },
    {
      "station_id": "N24",
      "station_name": "Khu Khot BTS",
      "station_line": "bts",
      "station_linecolor": "lightgreen",
      "is_extended": true,
      "start_time_1": "05:15:00",
      "start_time_2": "00:00:00",
      "positionX": 2.49,
      "positionY": 3.46,
      "latitude": 13.932153384313903,
      "longitude": 100.64682062892996
    },
    {
      "station_id": "N3",
      "station_name": "Victory Monument BTS",
      "station_line": "bts",
      "station_linecolor": "lightgreen",
      "is_extended": false,
      "start_time_1": "05:23:00",
      "start_time_2": "05:49:00",
      "positionX": 2.49,
      "positionY": 3.46,
      "latitude": 13.764469662708665,
      "longitude": 100.53729122690513
    },
    {
      "station_id": "N4",
      "station_name": "Sanam Pao BTS",
      "station_line": "bts",
      "station_linecolor": "lightgreen",
      "is_extended": false,
      "start_time_1": "05:20:00",
      "start_time_2": "05:51:00",
      "positionX": 2.49,
      "positionY": 3.46,
      "latitude": 13.772095723304542,
      "longitude": 100.54419394065506
    },
    {
      "station_id": "N5",
      "station_name": "Ari BTS",
      "station_line": "bts",
      "station_linecolor": "lightgreen",
      "is_extended": false,
      "start_time_1": "05:19:00",
      "start_time_2": "05:53:00",
      "positionX": 2.49,
      "positionY": 3.46,
      "latitude": 13.780825439075091,
      "longitude": 100.54287689074913
    },
    {
      "station_id": "N7",
      "station_name": "Saphan Kwai BTS",
      "station_line": "bts",
      "station_linecolor": "lightgreen",
      "is_extended": false,
      "start_time_1": "05:16:00",
      "start_time_2": "05:55:00",
      "positionX": 2.49,
      "positionY": 3.46,
      "latitude": 13.793345070989371,
      "longitude": 100.54948724875098
    },
    {
      "station_id": "N8",
      "station_name": "Mo Chit BTS",
      "station_line": "bts",
      "station_linecolor": "lightgreen",
      "is_extended": false,
      "start_time_1": "05:15:00",
      "start_time_2": "05:57:00",
      "positionX": 2.49,
      "positionY": 3.46,
      "latitude": 13.803046294171311,
      "longitude": 100.55243671374747
    },
    {
      "station_id": "N9",
      "station_name": "Ha Yaek Lad Phrao BTS",
      "station_line": "bts",
      "station_linecolor": "lightgreen",
      "is_extended": true,
      "start_time_1": "05:41:00",
      "start_time_2": "05:15:00",
      "positionX": 2.49,
      "positionY": 3.46,
      "latitude": 13.815463208719454,
      "longitude": 100.56097733664144
    },
    {
      "station_id": "PP01",
      "station_name": "Khlong Bang Phai MRT",
      "station_line": "mrt",
      "station_linecolor": "purple",
      "is_extended": false,
      "start_time_1": "05:30:00",
      "start_time_2": "00:00:00",
      "positionX": 2.49,
      "positionY": 3.46,
      "latitude": 13.89221340193892,
      "longitude": 100.40841020572884
    },
    {
      "station_id": "PP02",
      "station_name": "Talat Bang Yai MRT",
      "station_line": "mrt",
      "station_linecolor": "purple",
      "is_extended": false,
      "start_time_1": "05:32:00",
      "start_time_2": "06:30:00",
      "positionX": 2.49,
      "positionY": 3.46,
      "latitude": 13.879871389423247,
      "longitude": 100.40987272831546
    },
    {
      "station_id": "PP03",
      "station_name": "Sam Yaek Bang Yai MRT",
      "station_line": "mrt",
      "station_linecolor": "purple",
      "is_extended": false,
      "start_time_1": "05:35:00",
      "start_time_2": "06:28:00",
      "positionX": 2.49,
      "positionY": 3.46,
      "latitude": 13.875248891167354,
      "longitude": 100.42044677369296
    },
    {
      "station_id": "PP04",
      "station_name": "Bang Phlu MRT",
      "station_line": "mrt",
      "station_linecolor": "purple",
      "is_extended": false,
      "start_time_1": "05:37:00",
      "start_time_2": "06:25:00",
      "positionX": 2.49,
      "positionY": 3.46,
      "latitude": 13.875332476690982,
      "longitude": 100.43176716916881
    },
    {
      "station_id": "PP05",
      "station_name": "Bang Rak Yai MRT",
      "station_line": "mrt",
      "station_linecolor": "purple",
      "is_extended": false,
      "start_time_1": "05:39:00",
      "start_time_2": "06:23:00",
      "positionX": 2.49,
      "positionY": 3.46,
      "latitude": 13.877204085659987,
      "longitude": 100.44777918734806
    },
    {
      "station_id": "PP06",
      "station_name": "Bang Rak Noi - Tha It MRT",
      "station_line": "mrt",
      "station_linecolor": "purple",
      "is_extended": false,
      "start_time_1": "05:42:00",
      "start_time_2": "06:21:00",
      "positionX": 2.49,
      "positionY": 3.46,
      "latitude": 13.874427875339336,
      "longitude": 100.45617400551606
    },
    {
      "station_id": "PP07",
      "station_name": "Sai Ma MRT",
      "station_line": "mrt",
      "station_linecolor": "purple",
      "is_extended": false,
      "start_time_1": "05:44:00",
      "start_time_2": "06:20:00",
      "positionX": 2.49,
      "positionY": 3.46,
      "latitude": 13.871683523582483,
      "longitude": 100.46629408273697
    },
    {
      "station_id": "PP08",
      "station_name": "Phra Nangklao Bridge MRT",
      "station_line": "mrt",
      "station_linecolor": "purple",
      "is_extended": false,
      "start_time_1": "05:46:00",
      "start_time_2": "06:17:00",
      "positionX": 2.49,
      "positionY": 3.46,
      "latitude": 13.871416625100903,
      "longitude": 100.48329780999728
    },
    {
      "station_id": "PP09",
      "station_name": "Yaek Nonthaburi 1 MRT",
      "station_line": "mrt",
      "station_linecolor": "purple",
      "is_extended": false,
      "start_time_1": "05:49:00",
      "start_time_2": "06:15:00",
      "positionX": 2.49,
      "positionY": 3.46,
      "latitude": 13.868046397095506,
      "longitude": 100.49280551450255
    },
    {
      "station_id": "PP10",
      "station_name": "Bang Kraso MRT",
      "station_line": "mrt",
      "station_linecolor": "purple",
      "is_extended": false,
      "start_time_1": "05:51:00",
      "start_time_2": "06:13:00",
      "positionX": 2.49,
      "positionY": 3.46,
      "latitude": 13.860891930600086,
      "longitude": 100.50638871899001
    },
    {
      "station_id": "PP11",
      "station_name": "Nonthaburi Civic Center MRT",
      "station_line": "mrt",
      "station_linecolor": "purple",
      "is_extended": false,
      "start_time_1": "05:53:00",
      "start_time_2": "06:11:00",
      "positionX": 2.49,
      "positionY": 3.46,
      "latitude": 13.859134998883464,
      "longitude": 100.51239025988856
    },
    {
      "station_id": "PP12",
      "station_name": "Ministry of Public Health MRT",
      "station_line": "mrt",
      "station_linecolor": "purple",
      "is_extended": false,
      "start_time_1": "05:57:00",
      "start_time_2": "06:08:00",
      "positionX": 2.49,
      "positionY": 3.46,
      "latitude": 13.847314247342114,
      "longitude": 100.51539925065285
    },
    {
      "station_id": "PP13",
      "station_name": "Yaek Tiwanon MRT",
      "station_line": "mrt",
      "station_linecolor": "purple",
      "is_extended": false,
      "start_time_1": "05:59:00",
      "start_time_2": "06:06:00",
      "positionX": 2.49,
      "positionY": 3.46,
      "latitude": 13.84003499026566,
      "longitude": 100.51729156417781
    },
    {
      "station_id": "PP14",
      "station_name": "Wong Sawang MRT",
      "station_line": "mrt",
      "station_linecolor": "purple",
      "is_extended": false,
      "start_time_1": "06:02:00",
      "start_time_2": "06:04:00",
      "positionX": 2.49,
      "positionY": 3.46,
      "latitude": 13.829766878415423,
      "longitude": 100.52599698225262
    },
    {
      "station_id": "PP15",
      "station_name": "Bang Son MRT",
      "station_line": "mrt",
      "station_linecolor": "purple",
      "is_extended": false,
      "start_time_1": "06:05:00",
      "start_time_2": "06:02:00",
      "positionX": 2.49,
      "positionY": 3.46,
      "latitude": 13.819395593363906,
      "longitude": 100.53279792758569
    },
    {
      "station_id": "PP16",
      "station_name": "Tao Poon MRT",
      "station_line": "mrt",
      "station_linecolor": "purple",
      "is_extended": false,
      "start_time_1": "00:00:00",
      "start_time_2": "06:00:00",
      "positionX": 2.49,
      "positionY": 3.46,
      "latitude": 13.805217868028816,
      "longitude": 100.53113862742092
    },
    {
      "station_id": "S1",
      "station_name": "Ratchadamri BTS",
      "station_line": "bts",
      "station_linecolor": "darkgreen",
      "is_extended": false,
      "start_time_1": "05:34:00",
      "start_time_2": "05:51:00",
      "positionX": 2.49,
      "positionY": 3.46,
      "latitude": 13.744399553717368,
      "longitude": 100.53940911236552
    },
    {
      "station_id": "S10",
      "station_name": "Talad Plu BTS",
      "station_line": "bts",
      "station_linecolor": "darkgreen",
      "is_extended": false,
      "start_time_1": "05:52:00",
      "start_time_2": "05:34:00",
      "positionX": 2.49,
      "positionY": 3.46,
      "latitude": 13.726719924331608,
      "longitude": 100.47675991206717
    },
    {
      "station_id": "S11",
      "station_name": "Wuttakat BTS",
      "station_line": "bts",
      "station_linecolor": "darkgreen",
      "is_extended": false,
      "start_time_1": "05:54:00",
      "start_time_2": "05:32:00",
      "positionX": 2.49,
      "positionY": 3.46,
      "latitude": 13.71937144694258,
      "longitude": 100.46945155758927
    },
    {
      "station_id": "S12",
      "station_name": "Bang Wa BTS",
      "station_line": "bts",
      "station_linecolor": "darkgreen",
      "is_extended": false,
      "start_time_1": "00:00:00",
      "start_time_2": "05:30:00",
      "positionX": 2.49,
      "positionY": 3.46,
      "latitude": 13.725738364268715,
      "longitude": 100.45950322598381
    },
    {
      "station_id": "S2",
      "station_name": "Sala Daeng BTS",
      "station_line": "bts",
      "station_linecolor": "darkgreen",
      "is_extended": false,
      "start_time_1": "05:37:00",
      "start_time_2": "05:49:00",
      "positionX": 2.49,
      "positionY": 3.46,
      "latitude": 13.734186606766997,
      "longitude": 100.53466633500454
    },
    {
      "station_id": "S3",
      "station_name": "Chong Nonsi BTS",
      "station_line": "bts",
      "station_linecolor": "darkgreen",
      "is_extended": false,
      "start_time_1": "05:39:00",
      "start_time_2": "05:47:00",
      "positionX": 2.49,
      "positionY": 3.46,
      "latitude": 13.730092650295491,
      "longitude": 100.52861456664476
    },
    {
      "station_id": "S4",
      "station_name": "Saint Louis BTS",
      "station_line": "bts",
      "station_linecolor": "darkgreen",
      "is_extended": false,
      "start_time_1": "05:41:00",
      "start_time_2": "05:45:00",
      "positionX": 2.49,
      "positionY": 3.46,
      "latitude": 13.720162447443604,
      "longitude": 100.52738343551843
    },
    {
      "station_id": "S5",
      "station_name": "Surasak BTS",
      "station_line": "bts",
      "station_linecolor": "darkgreen",
      "is_extended": false,
      "start_time_1": "05:42:00",
      "start_time_2": "05:43:00",
      "positionX": 2.49,
      "positionY": 3.46,
      "latitude": 13.724903737309301,
      "longitude": 100.52210215766259
    },
    {
      "station_id": "S6",
      "station_name": "Saphan Taksin BTS",
      "station_line": "bts",
      "station_linecolor": "darkgreen",
      "is_extended": false,
      "start_time_1": "05:44:00",
      "start_time_2": "05:41:00",
      "positionX": 2.49,
      "positionY": 3.46,
      "latitude": 13.725332047813877,
      "longitude": 100.51433717867866
    },
    {
      "station_id": "S7",
      "station_name": "Krung Thon Buri BTS",
      "station_line": "bts",
      "station_linecolor": "darkgreen",
      "is_extended": false,
      "start_time_1": "05:47:00",
      "start_time_2": "05:39:00",
      "positionX": 2.49,
      "positionY": 3.46,
      "latitude": 13.72721692988602,
      "longitude": 100.50395980321768
    },
    {
      "station_id": "S8",
      "station_name": "Wongwian Yai BTS",
      "station_line": "bts",
      "station_linecolor": "darkgreen",
      "is_extended": false,
      "start_time_1": "05:48:00",
      "start_time_2": "05:38:00",
      "positionX": 2.49,
      "positionY": 3.46,
      "latitude": 13.726719924331608,
      "longitude": 100.49547620230776
    },
    {
      "station_id": "S9",
      "station_name": "Pho Nimit BTS",
      "station_line": "bts",
      "station_linecolor": "darkgreen",
      "is_extended": false,
      "start_time_1": "05:50:00",
      "start_time_2": "05:36:00",
      "positionX": 2.49,
      "positionY": 3.46,
      "latitude": 13.72559967463935,
      "longitude": 100.48594451212725
    },
    {
      "station_id": "W1",
      "station_name": "National Stadium BTS",
      "station_line": "bts",
      "station_linecolor": "darkgreen",
      "is_extended": false,
      "start_time_1": "05:30:00",
      "start_time_2": "00:00:00",
      "positionX": 2.49,
      "positionY": 3.46,
      "latitude": 13.754784492353917,
      "longitude": 100.52946873521685
    },
    {
      "station_id": "G1",
      "station_name": "Krung Thonburi BTS",
      "station_line": "bts",
      "station_linecolor": "gold",
      "is_extended": false,
      "start_time_1": "06:00:00",
      "start_time_2": "00:00:00",
      "positionX": 2.49,
      "positionY": 3.46,
      "latitude": 13.72115339383005,
      "longitude": 100.50340895302062
    },
    {
      "station_id": "G2",
      "station_name": "Charoen Nakhon BTS",
      "station_line": "bts",
      "station_linecolor": "gold",
      "is_extended": false,
      "start_time_1": "06:04:00",
      "start_time_2": "06:08:00",
      "positionX": 2.49,
      "positionY": 3.46,
      "latitude": 13.72645326081236,
      "longitude": 100.50909437141317
    },
    {
      "station_id": "G3",
      "station_name": "Khlong San BTS",
      "station_line": "bts",
      "station_linecolor": "gold",
      "is_extended": false,
      "start_time_1": "00:00:00",
      "start_time_2": "06:06:00",
      "positionX": 2.49,
      "positionY": 3.46,
      "latitude": 13.730521213718081,
      "longitude": 100.5077204295055
    },
    {
      "station_id": "YL01",
      "station_name": "Lat Phrao MRT",
      "station_line": "mrt",
      "station_linecolor": "yellow",
      "is_extended": false,
      "start_time_1": "05:30:00",
      "start_time_2": "00:00:00",
      "positionX": 2.49,
      "positionY": 3.46,
      "latitude": 13.807036664715614,
      "longitude": 100.57486631375053
    },
    {
      "station_id": "YL02",
      "station_name": "Phawana MRT",
      "station_line": "mrt",
      "station_linecolor": "yellow",
      "is_extended": false,
      "start_time_1": "05:32:00",
      "start_time_2": "05:59:00",
      "positionX": 2.49,
      "positionY": 3.46,
      "latitude": 13.800224159109693,
      "longitude": 100.58425819078425
    },
    {
      "station_id": "YL03",
      "station_name": "Chok Chai 4 MRT",
      "station_line": "mrt",
      "station_linecolor": "yellow",
      "is_extended": false,
      "start_time_1": "05:34:00",
      "start_time_2": "05:57:00",
      "positionX": 2.49,
      "positionY": 3.46,
      "latitude": 13.79451295050645,
      "longitude": 100.59430632580737
    },
    {
      "station_id": "YL04",
      "station_name": "Lat Phrao 71 MRT",
      "station_line": "mrt",
      "station_linecolor": "yellow",
      "is_extended": false,
      "start_time_1": "05:36:00",
      "start_time_2": "05:55:00",
      "positionX": 2.49,
      "positionY": 3.46,
      "latitude": 13.787166782328374,
      "longitude": 100.60753157251071
    },
    {
      "station_id": "YL05",
      "station_name": "Lat Phrao 83 MRT",
      "station_line": "mrt",
      "station_linecolor": "yellow",
      "is_extended": false,
      "start_time_1": "05:38:00",
      "start_time_2": "05:53:00",
      "positionX": 2.49,
      "positionY": 3.46,
      "latitude": 13.783768550949011,
      "longitude": 100.61358757317566
    },
    {
      "station_id": "YL06",
      "station_name": "Mahat Thai MRT",
      "station_line": "mrt",
      "station_linecolor": "yellow",
      "is_extended": false,
      "start_time_1": "05:40:00",
      "start_time_2": "05:51:00",
      "positionX": 2.49,
      "positionY": 3.46,
      "latitude": 13.778434254445799,
      "longitude": 100.62312324615412
    },
    {
      "station_id": "YL07",
      "station_name": "Lat Phrao 101 MRT",
      "station_line": "mrt",
      "station_linecolor": "yellow",
      "is_extended": false,
      "start_time_1": "05:41:00",
      "start_time_2": "05:50:00",
      "positionX": 2.49,
      "positionY": 3.46,
      "latitude": 13.774702259510999,
      "longitude": 100.62988226332924
    },
    {
      "station_id": "YL08",
      "station_name": "Bang Kapi MRT",
      "station_line": "mrt",
      "station_linecolor": "yellow",
      "is_extended": false,
      "start_time_1": "05:43:00",
      "start_time_2": "05:48:00",
      "positionX": 2.49,
      "positionY": 3.46,
      "latitude": 13.76928207640866,
      "longitude": 100.63967729434091
    },
    {
      "station_id": "YL09",
      "station_name": "Yaek Lam Sali MRT",
      "station_line": "mrt",
      "station_linecolor": "yellow",
      "is_extended": false,
      "start_time_1": "05:46:00",
      "start_time_2": "05:45:00",
      "positionX": 2.49,
      "positionY": 3.46,
      "latitude": 13.761730011380093,
      "longitude": 100.64550317318847
    },
    {
      "station_id": "YL10",
      "station_name": "Si Kritha MRT",
      "station_line": "mrt",
      "station_linecolor": "yellow",
      "is_extended": false,
      "start_time_1": "05:48:00",
      "start_time_2": "05:43:00",
      "positionX": 2.49,
      "positionY": 3.46,
      "latitude": 13.750230776969183,
      "longitude": 100.64479816600651
    },
    {
      "station_id": "YL11",
      "station_name": "Hua Mak MRT",
      "station_line": "mrt",
      "station_linecolor": "yellow",
      "is_extended": false,
      "start_time_1": "05:51:00",
      "start_time_2": "05:41:00",
      "positionX": 2.49,
      "positionY": 3.46,
      "latitude": 13.736281845640281,
      "longitude": 100.64115974190159
    },
    {
      "station_id": "YL12",
      "station_name": "Kalantan MRT",
      "station_line": "mrt",
      "station_linecolor": "yellow",
      "is_extended": false,
      "start_time_1": "05:38:00",
      "start_time_2": "05:38:00",
      "positionX": 2.49,
      "positionY": 3.46,
      "latitude": 13.725212219344826,
      "longitude": 100.64189614624921
    },
    {
      "station_id": "YL13",
      "station_name": "Si Nut MRT",
      "station_line": "mrt",
      "station_linecolor": "yellow",
      "is_extended": false,
      "start_time_1": "05:40:00",
      "start_time_2": "05:51:00",
      "positionX": 2.49,
      "positionY": 3.46,
      "latitude": 13.711512052584567,
      "longitude": 100.64410508916028
    },
    {
      "station_id": "YL14",
      "station_name": "Srinagarindra 38 MRT",
      "station_line": "mrt",
      "station_linecolor": "yellow",
      "is_extended": false,
      "start_time_1": "05:42:00",
      "start_time_2": "05:49:00",
      "positionX": 2.49,
      "positionY": 3.46,
      "latitude": 13.700838903368894,
      "longitude": 100.64656897282937
    },
    {
      "station_id": "YL15",
      "station_name": "Suan Luang Rama IX MRT",
      "station_line": "mrt",
      "station_linecolor": "yellow",
      "is_extended": false,
      "start_time_1": "05:52:00",
      "start_time_2": "05:47:00",
      "positionX": 2.49,
      "positionY": 3.46,
      "latitude": 13.690883183773906,
      "longitude": 100.64719689229992
    },
    {
      "station_id": "YL16",
      "station_name": "Si Udom MRT",
      "station_line": "mrt",
      "station_linecolor": "yellow",
      "is_extended": false,
      "start_time_1": "05:46:00",
      "start_time_2": "05:44:00",
      "positionX": 2.49,
      "positionY": 3.46,
      "latitude": 13.67664915541864,
      "longitude": 100.64615981392589
    },
    {
      "station_id": "YL17",
      "station_name": "Si Iam MRT",
      "station_line": "mrt",
      "station_linecolor": "yellow",
      "is_extended": false,
      "start_time_1": "05:48:00",
      "start_time_2": "05:43:00",
      "positionX": 2.49,
      "positionY": 3.46,
      "latitude": 13.666442674468252,
      "longitude": 100.64459648718099
    },
    {
      "station_id": "YL18",
      "station_name": "Si La Salle MRT",
      "station_line": "mrt",
      "station_linecolor": "yellow",
      "is_extended": false,
      "start_time_1": "05:50:00",
      "start_time_2": "05:41:00",
      "positionX": 2.49,
      "positionY": 3.46,
      "latitude": 13.654978063923556,
      "longitude": 100.64222238382536
    },
    {
      "station_id": "YL19",
      "station_name": "Si Bearing MRT",
      "station_line": "mrt",
      "station_linecolor": "yellow",
      "is_extended": false,
      "start_time_1": "05:52:00",
      "start_time_2": "05:38:00",
      "positionX": 2.49,
      "positionY": 3.46,
      "latitude": 13.64435739374045,
      "longitude": 100.6367381378345
    },
    {
      "station_id": "YL20",
      "station_name": "Si Dan MRT",
      "station_line": "mrt",
      "station_linecolor": "yellow",
      "is_extended": false,
      "start_time_1": "05:54:00",
      "start_time_2": "05:36:00",
      "positionX": 2.49,
      "positionY": 3.46,
      "latitude": 13.633177780524006,
      "longitude": 100.6301673745272
    },
    {
      "station_id": "YL21",
      "station_name": "Si Thepha MRT",
      "station_line": "mrt",
      "station_linecolor": "yellow",
      "is_extended": false,
      "start_time_1": "05:57:00",
      "start_time_2": "05:34:00",
      "positionX": 2.49,
      "positionY": 3.46,
      "latitude": 13.63003443373092,
      "longitude": 100.6226836385602
    },
    {
      "station_id": "YL22",
      "station_name": "Thipphawan MRT",
      "station_line": "mrt",
      "station_linecolor": "yellow",
      "is_extended": false,
      "start_time_1": "05:59:00",
      "start_time_2": "05:32:00",
      "positionX": 2.49,
      "positionY": 3.46,
      "latitude": 13.636712120656702,
      "longitude": 100.60994394748776
    },
    {
      "station_id": "YL23",
      "station_name": "Samrong MRT",
      "station_line": "mrt",
      "station_linecolor": "yellow",
      "is_extended": false,
      "start_time_1": "00:00:00",
      "start_time_2": "05:30:00",
      "positionX": 2.49,
      "positionY": 3.46,
      "latitude": 13.645207016445042,
      "longitude": 100.59642937269035
    },
    {
      "station_id": "RN01",
      "station_name": "Chatuchak SRT",
      "station_line": "srt",
      "station_linecolor": "darkred",
      "is_extended": false,
      "start_time_1": "05:03:00",
      "start_time_2": "05:48:00",
      "positionX": 2.49,
      "positionY": 3.46,
      "latitude": 13.826544137888856,
      "longitude": 100.54941077651536
    },
    {
      "station_id": "RN02",
      "station_name": "Wat Samian Nari SRT",
      "station_line": "srt",
      "station_linecolor": "darkred",
      "is_extended": false,
      "start_time_1": "05:06:00",
      "start_time_2": "05:45:00",
      "positionX": 2.49,
      "positionY": 3.46,
      "latitude": 13.841475711741928,
      "longitude": 100.55736920342768
    },
    {
      "station_id": "RN03",
      "station_name": "Bang Khen SRT",
      "station_line": "srt",
      "station_linecolor": "darkred",
      "is_extended": false,
      "start_time_1": "05:09:00",
      "start_time_2": "05:43:00",
      "positionX": 2.49,
      "positionY": 3.46,
      "latitude": 13.849119635492604,
      "longitude": 100.5616159594482
    },
    {
      "station_id": "RN04",
      "station_name": "Thung Song Hong SRT",
      "station_line": "srt",
      "station_linecolor": "darkred",
      "is_extended": false,
      "start_time_1": "05:11:00",
      "start_time_2": "05:40:00",
      "positionX": 2.49,
      "positionY": 3.46,
      "latitude": 13.860036392280676,
      "longitude": 100.56755946342147
    },
    {
      "station_id": "RN05",
      "station_name": "Lak Si SRT",
      "station_line": "srt",
      "station_linecolor": "darkred",
      "is_extended": false,
      "start_time_1": "05:14:00",
      "start_time_2": "05:37:00",
      "positionX": 2.49,
      "positionY": 3.46,
      "latitude": 13.886160001558554,
      "longitude": 100.58186805060089
    },
    {
      "station_id": "RN06",
      "station_name": "Kan Kheha SRT",
      "station_line": "srt",
      "station_linecolor": "darkred",
      "is_extended": false,
      "start_time_1": "05:17:00",
      "start_time_2": "05:34:00",
      "positionX": 2.49,
      "positionY": 3.46,
      "latitude": 13.898455025999342,
      "longitude": 100.58894099891245
    },
    {
      "station_id": "RN07",
      "station_name": "Don Mueang SRT",
      "station_line": "srt",
      "station_linecolor": "darkred",
      "is_extended": false,
      "start_time_1": "05:20:00",
      "start_time_2": "05:31:00",
      "positionX": 2.49,
      "positionY": 3.46,
      "latitude": 13.914688320957532,
      "longitude": 100.59799230840169
    },
    {
      "station_id": "RN08",
      "station_name": "Lak Hok SRT",
      "station_line": "srt",
      "station_linecolor": "darkred",
      "is_extended": false,
      "start_time_1": "05:23:00",
      "start_time_2": "05:28:00",
      "positionX": 2.49,
      "positionY": 3.46,
      "latitude": 13.965779424564177,
      "longitude": 100.60520907248394
    },
    {
      "station_id": "RN09",
      "station_name": "Rangsit SRT",
      "station_line": "srt",
      "station_linecolor": "darkred",
      "is_extended": false,
      "start_time_1": "00:00:00",
      "start_time_2": "05:26:00",
      "positionX": 2.49,
      "positionY": 3.46,
      "latitude": 13.990511823490102,
      "longitude": 100.60212961517647
    },
    {
      "station_id": "RL01",
      "station_name": "Bang Son SRT",
      "station_line": "srt",
      "station_linecolor": "lightred",
      "is_extended": false,
      "start_time_1": "05:05:00",
      "start_time_2": "05:27:00",
      "positionX": 2.49,
      "positionY": 3.46,
      "latitude": 13.82220457338866,
      "longitude": 100.53362592948194
    },
    {
      "station_id": "RL02",
      "station_name": "Bang Bamru SRT",
      "station_line": "srt",
      "station_linecolor": "lightred",
      "is_extended": false,
      "start_time_1": "05:11:00",
      "start_time_2": "05:21:00",
      "positionX": 2.49,
      "positionY": 3.46,
      "latitude": 13.791865342285803,
      "longitude": 100.47744153275916
    },
    {
      "station_id": "RL03",
      "station_name": "Taling Chan SRT",
      "station_line": "srt",
      "station_linecolor": "lightred",
      "is_extended": false,
      "start_time_1": "00:00:00",
      "start_time_2": "05:16:00",
      "positionX": 2.49,
      "positionY": 3.46,
      "latitude": 13.789280233208762,
      "longitude": 100.43969459728429
    },
    {
      "station_id": "RCEN",
      "station_name": "Bang Sue SRT",
      "station_line": "srt",
      "station_linecolor": "darkred",
      "is_extended": false,
      "start_time_1": "05:00:00",
      "start_time_2": "05:00:00",
      "positionX": 2.49,
      "positionY": 3.46,
      "latitude": 13.80423583257811,
      "longitude": 100.54196023561401 
    },
    {
      "station_id": "PK01",
      "station_name": "Nonthaburi Civic Centre MRT",
      "station_line": "mrt",
      "station_linecolor": "pink",
      "is_extended": false,
      "start_time_1": "05:30:00",
      "start_time_2": "00:00:00",
      "positionX": 2.49,
      "positionY": 3.46,
      "latitude": 13.859796829102361,
      "longitude": 100.5180072606697
    },
    {
      "station_id": "PK02",
      "station_name": "Khae Rai MRT",
      "station_line": "mrt",
      "station_linecolor": "pink",
      "is_extended": false,
      "start_time_1": "05:32:00",
      "start_time_2": "05:37:00",
      "positionX": 2.49,
      "positionY": 3.46,
      "latitude": 13.862591458017144,
      "longitude": 100.52074569456255
    },    
    {
      "station_id": "PK03",
      "station_name": "Sanambin Nam MRT",
      "station_line": "mrt",
      "station_linecolor": "pink",
      "is_extended": false,
      "start_time_1": "05:34:00",
      "start_time_2": "05:34:00",
      "positionX": 2.49,
      "positionY": 3.46,
      "latitude": 13.874211615894886,
      "longitude": 100.51633627423392
    },    
    {
      "station_id": "PK04",
      "station_name": "Samakkhi MRT",
      "station_line": "mrt",
      "station_linecolor": "pink",
      "is_extended": false,
      "start_time_1": "05:36:00",
      "start_time_2": "05:32:00",
      "positionX": 2.49,
      "positionY": 3.46,
      "latitude": 13.889265284806466,
      "longitude": 100.51059018862207
    },    
    {
      "station_id": "PK05",
      "station_name": "Royal Irrigation Department MRT",
      "station_line": "mrt",
      "station_linecolor": "pink",
      "is_extended": false,
      "start_time_1": "05:38:00",
      "start_time_2": "05:30:00",
      "positionX": 2.49,
      "positionY": 3.46,
      "latitude": 13.898622669768198,
      "longitude": 100.50712810331576
    },    
    {
      "station_id": "PK06",
      "station_name": "Yaek Pak Kret MRT",
      "station_line": "mrt",
      "station_linecolor": "pink",
      "is_extended": false,
      "start_time_1": "05:40:00",
      "start_time_2": "05:54:00",
      "positionX": 2.49,
      "positionY": 3.46,
      "latitude": 13.90632503554369,
      "longitude": 100.50541924672365
    },    
    {
      "station_id": "PK07",
      "station_name": "Pak Kret Bypass MRT",
      "station_line": "mrt",
      "station_linecolor": "pink",
      "is_extended": false,
      "start_time_1": "05:43:00",
      "start_time_2": "05:51:00",
      "positionX": 2.49,
      "positionY": 3.46,
      "latitude": 13.906533005832786,
      "longitude": 100.51559741452387
    },    
    {
      "station_id": "PK08",
      "station_name": "Chaeng Wattana-Pak Kret 28 MRT",
      "station_line": "mrt",
      "station_linecolor": "pink",
      "is_extended": false,
      "start_time_1": "05:45:00",
      "start_time_2": "05:49:00",
      "positionX": 2.49,
      "positionY": 3.46,
      "latitude": 13.904092469536824,
      "longitude": 100.52921540911278
    },    
    {
      "station_id": "PK09",
      "station_name": "Si Rat MRT",
      "station_line": "mrt",
      "station_linecolor": "pink",
      "is_extended": false,
      "start_time_1": "05:48:00",
      "start_time_2": "05:47:00",
      "positionX": 2.49,
      "positionY": 3.46,
      "latitude": 13.900546663399851,
      "longitude": 100.53997513324192
    },    
    {
      "station_id": "PK10",
      "station_name": "Muang Thong Thani MRT",
      "station_line": "mrt",
      "station_linecolor": "pink",
      "is_extended": false,
      "start_time_1": "05:31:00",
      "start_time_2": "05:44:00",
      "positionX": 2.49,
      "positionY": 3.46,
      "latitude": 13.897456489471683,
      "longitude": 100.54839516083665
    },
    {
      "station_id": "PK11",
      "station_name": "Chaeng Watthana 14 MRT",
      "station_line": "mrt",
      "station_linecolor": "pink",
      "is_extended": false,
      "start_time_1": "05:33:00",
      "start_time_2": "05:42:00",
      "positionX": 2.49,
      "positionY": 3.46,
      "latitude": 13.893271784200866,
      "longitude": 100.5602999874358
    },
    {
      "station_id": "PK12",
      "station_name": "Government Complex MRT",
      "station_line": "mrt",
      "station_linecolor": "pink",
      "is_extended": false,
      "start_time_1": "05:35:00",
      "start_time_2": "05:40:00",
      "positionX": 2.49,
      "positionY": 3.46,
      "latitude": 13.890730235141218,
      "longitude": 100.56738104206458
    },    
    {
      "station_id": "PK13",
      "station_name": "National Telecom MRT",
      "station_line": "mrt",
      "station_linecolor": "pink",
      "is_extended": false,
      "start_time_1": "05:37:00",
      "start_time_2": "05:38:00",
      "positionX": 2.49,
      "positionY": 3.46,
      "latitude": 13.887524395369532,
      "longitude": 100.57565522479922
    },    
    {
      "station_id": "PK14",
      "station_name": "Lak Si MRT",
      "station_line": "mrt",
      "station_linecolor": "pink",
      "is_extended": false,
      "start_time_1": "05:39:00",
      "start_time_2": "05:36:00",
      "positionX": 2.49,
      "positionY": 3.46,
      "latitude": 13.884061277439853,
      "longitude": 100.58247113357788
    },    
    {
      "station_id": "PK15",
      "station_name": "Rajabhat Phranakhon MRT",
      "station_line": "mrt",
      "station_linecolor": "pink",
      "is_extended": false,
      "start_time_1": "05:41:00",
      "start_time_2": "05:34:00",
      "positionX": 2.49,
      "positionY": 3.46,
      "latitude": 13.879935743220809,
      "longitude": 100.58940560476348
    },    
    {
      "station_id": "PK16",
      "station_name": "Wat Phra Sri Mahathat MRT",
      "station_line": "mrt",
      "station_linecolor": "pink",
      "is_extended": false,
      "start_time_1": "05:44:00",
      "start_time_2": "05:32:00",
      "positionX": 2.49,
      "positionY": 3.46,
      "latitude": 13.874618057092706,
      "longitude": 100.59713378485891
    },    
    {
      "station_id": "PK17",
      "station_name": "Ram Intra 3 MRT",
      "station_line": "mrt",
      "station_linecolor": "pink",
      "is_extended": false,
      "start_time_1": "05:45:00",
      "start_time_2": "05:30:00",
      "positionX": 2.49,
      "positionY": 3.46,
      "latitude": 13.870872687771785,
      "longitude": 100.6024749832153
    },    
    {
      "station_id": "PK18",
      "station_name": "Lat Pla Khao MRT",
      "station_line": "mrt",
      "station_linecolor": "pink",
      "is_extended": false,
      "start_time_1": "05:48:00",
      "start_time_2": "05:36:00",
      "positionX": 2.49,
      "positionY": 3.46,
      "latitude": 13.862700364573477,
      "longitude": 100.61778191631055
    },    
    {
      "station_id": "PK19",
      "station_name": "Ram Inthra Kor Mor 4 MRT",
      "station_line": "mrt",
      "station_linecolor": "pink",
      "is_extended": false,
      "start_time_1": "05:50:00",
      "start_time_2": "05:34:00",
      "positionX": 2.49,
      "positionY": 3.46,
      "latitude": 13.858272800465695,
      "longitude": 100.62614428240688
    },    
    {
      "station_id": "PK20",
      "station_name": "Maiyalap MRT",
      "station_line": "mrt",
      "station_linecolor": "pink",
      "is_extended": false,
      "start_time_1": "05:52:00",
      "start_time_2": "05:33:00",
      "positionX": 2.49,
      "positionY": 3.46,
      "latitude": 13.854973541948793,
      "longitude": 100.63221535293144
    },
    {
      "station_id": "PK21",
      "station_name": "Vatcharapol MRT",
      "station_line": "mrt",
      "station_linecolor": "pink",
      "is_extended": false,
      "start_time_1": "05:54:00",
      "start_time_2": "05:30:00",
      "positionX": 2.49,
      "positionY": 3.46,
      "latitude": 13.849288343587778,
      "longitude": 100.6428243888514
    },
    {
      "station_id": "PK22",
      "station_name": "Ram Inthra Kor Mor 6 MRT",
      "station_line": "mrt",
      "station_linecolor": "pink",
      "is_extended": false,
      "start_time_1": "05:47:00",
      "start_time_2": "05:38:00",
      "positionX": 2.49,
      "positionY": 3.46,
      "latitude": 13.845252111809138,
      "longitude": 100.65031639469731
    },    
    {
      "station_id": "PK23",
      "station_name": "Khu Bon MRT",
      "station_line": "mrt",
      "station_linecolor": "pink",
      "is_extended": false,
      "start_time_1": "05:48:00",
      "start_time_2": "05:36:00",
      "positionX": 2.49,
      "positionY": 3.46,
      "latitude": 13.840763216281237,
      "longitude": 100.65860796963867
    },    
    {
      "station_id": "PK24",
      "station_name": "Ram Inthra Kor Mor 9 MRT",
      "station_line": "mrt",
      "station_linecolor": "pink",
      "is_extended": false,
      "start_time_1": "05:51:00",
      "start_time_2": "05:34:00",
      "positionX": 2.49,
      "positionY": 3.46,
      "latitude": 13.833831671977123,
      "longitude": 100.6675724924005
    },    
    {
      "station_id": "PK25",
      "station_name": "Outer Ring Road-Ram Inthra MRT",
      "station_line": "mrt",
      "station_linecolor": "pink",
      "is_extended": false,
      "start_time_1": "05:53:00",
      "start_time_2": "05:32:00",
      "positionX": 2.49,
      "positionY": 3.46,
      "latitude": 13.82458980437969,
      "longitude": 100.67718680649682
    },    
    {
      "station_id": "PK26",
      "station_name": "Nopparat MRT",
      "station_line": "mrt",
      "station_linecolor": "pink",
      "is_extended": false,
      "start_time_1": "05:55:00",
      "start_time_2": "05:39:00",
      "positionX": 2.49,
      "positionY": 3.46,
      "latitude": 13.81660479951491,
      "longitude": 100.68546966755055
    },    
    {
      "station_id": "PK27",
      "station_name": "Bang Chan MRT",
      "station_line": "mrt",
      "station_linecolor": "pink",
      "is_extended": false,
      "start_time_1": "05:58:00",
      "start_time_2": "05:36:00",
      "positionX": 2.49,
      "positionY": 3.46,
      "latitude": 13.812753775328867,
      "longitude": 100.70297058282267
    },    
    {
      "station_id": "PK28",
      "station_name": "Setthabutbamphen MRT",
      "station_line": "mrt",
      "station_linecolor": "pink",
      "is_extended": false,
      "start_time_1": "06:00:00",
      "start_time_2": "05:34:00",
      "positionX": 2.49,
      "positionY": 3.46,
      "latitude": 13.812688573653835,
      "longitude": 100.71255415208935
    },    
    {
      "station_id": "PK29",
      "station_name": "Min Buri Market MRT",
      "station_line": "mrt",
      "station_linecolor": "pink",
      "is_extended": false,
      "start_time_1": "06:03:00",
      "start_time_2": "05:32:00",
      "positionX": 2.49,
      "positionY": 3.46,
      "latitude": 13.812505583800418,
      "longitude": 100.72570047382565
    },    
    {
      "station_id": "PK30",
      "station_name": "Min Buri MRT",
      "station_line": "mrt",
      "station_linecolor": "pink",
      "is_extended": false,
      "start_time_1": "00:00:00",
      "start_time_2": "05:30:00",
      "positionX": 2.49,
      "positionY": 3.46,
      "latitude": 13.808485365317972,
      "longitude": 100.73260382391459
    },
    {
      "station_id": "OR13",
      "station_name": "Thailand Cultural Centre MRT",
      "station_line": "mrt",
      "station_linecolor": "orange",
      "is_extended": false,
      "latitude": 13.765582564797883,
      "longitude": 100.57073350533142
    },
    {
      "station_id": "OR14",
      "station_name": "MRTA MRT",
      "station_line": "mrt",
      "station_linecolor": "orange",
      "is_extended": false,
      "latitude": 13.755408352574443,
      "longitude": 100.57789718375743
    },
    {
      "station_id": "OR15",
      "station_name": "The Rama IX Golden MRT",
      "station_line": "mrt",
      "station_linecolor": "orange",
      "is_extended": false,
      "latitude": 13.752326931068678,
      "longitude": 100.5920671088781
    },
    {
      "station_id": "OR16",
      "station_name": "Ramkhamhaeng 12 MRT",
      "station_line": "mrt",
      "station_linecolor": "orange",
      "is_extended": false,
      "latitude": 13.751547129513861,
      "longitude": 100.6097226401244
    },
    {
      "station_id": "OR17",
      "station_name": "Ramkhamhaeng MRT",
      "station_line": "mrt",
      "station_linecolor": "orange",
      "is_extended": false,
      "latitude": 13.75897262471205,
      "longitude": 100.6180684376428
    },
    {
      "station_id": "OR18",
      "station_name": "Sports Authority of Thailand MRT",
      "station_line": "mrt",
      "station_linecolor": "orange",
      "is_extended": false,
      "latitude": 13.76029837934242,
      "longitude": 100.62665348981709
    },
    {
      "station_id": "OR19",
      "station_name": "Ramkhamhaeng 34 MRT",
      "station_line": "mrt",
      "station_linecolor": "orange",
      "is_extended": false,
      "latitude": 13.761663726992483,
      "longitude": 100.63812053024884
    },
    {
      "station_id": "OR20",
      "station_name": "Lam Sali MRT",
      "station_line": "mrt",
      "station_linecolor": "orange",
      "is_extended": false,
      "latitude": 13.76260482745214,
      "longitude": 100.64649480667447
    },
    {
      "station_id": "OR21",
      "station_name": "Sri Burapha MRT",
      "station_line": "mrt",
      "station_linecolor": "orange",
      "is_extended": false,
      "latitude": 13.768171173333071,
      "longitude": 100.6587530287105
    },
    {
      "station_id": "OR22",
      "station_name": "Khlong Ban Ma MRT",
      "station_line": "mrt",
      "station_linecolor": "orange",
      "is_extended": false,
      "latitude": 13.773867984787481,
      "longitude": 100.66796164990252
    },
    {
      "station_id": "OR23",
      "station_name": "Sammakon MRT",
      "station_line": "mrt",
      "station_linecolor": "orange",
      "is_extended": false,
      "latitude": 13.778265274697656,
      "longitude": 100.67593141029096
    },
    {
      "station_id": "OR24",
      "station_name": "Nom Klao MRT",
      "station_line": "mrt",
      "station_linecolor": "orange",
      "is_extended": false,
      "latitude": 13.786693844882416,
      "longitude": 100.69121051043894
    },
    {
      "station_id": "OR25",
      "station_name": "Rat Phatthana MRT",
      "station_line": "mrt",
      "station_linecolor": "orange",
      "is_extended": false,
      "latitude": 13.791596006710913,
      "longitude": 100.70022163861913
    },
    {
      "station_id": "OR26",
      "station_name": "Min Phatthana MRT",
      "station_line": "mrt",
      "station_linecolor": "orange",
      "is_extended": false,
      "latitude": 13.797303886989138,
      "longitude": 100.71114437929734
    },
    {
      "station_id": "OR27",
      "station_name": "Keha Ramkhamhaeng MRT",
      "station_line": "mrt",
      "station_linecolor": "orange",
      "is_extended": false,
      "latitude": 13.803400199211096,
      "longitude": 100.7233659943124
    },
    {
      "station_id": "OR28",
      "station_name": "Min Buri MRT",
      "station_line": "mrt",
      "station_linecolor": "orange",
      "is_extended": false,
      "latitude": 13.810040586559332,
      "longitude": 100.7329199750459
    },
    {
      "station_id": "OR29",
      "station_name": "Yaek Rom Klao MRT",
      "station_line": "mrt",
      "station_linecolor": "orange",
      "is_extended": false,
      "latitude": 13.813259491917785,
      "longitude": 100.73910643349238
    }
  ]