[
    {
      "station_id": "A1",
      "station_name": "Suvarnabhumi ARL",
      "station_line": "arl",
      "station_linecolor": "red",
      "is_extended": false,
      "latitude": 13.703119561182797,
      "longitude": 100.75187358910955
    },
    {
      "station_id": "A2",
      "station_name": "Lat Krabang ARL",
      "station_line": "arl",
      "station_linecolor": "red",
      "is_extended": false,
      "latitude": 13.734276250159681,
      "longitude": 100.74759724392246
    },
    {
      "station_id": "A3",
      "station_name": "Ban Thap Chang ARL",
      "station_line": "arl",
      "station_linecolor": "red",
      "is_extended": false,
      "latitude": 13.727890000318158,
      "longitude": 100.68836206186987
    },
    {
      "station_id": "A4",
      "station_name": "Hua Mak ARL",
      "station_line": "arl",
      "station_linecolor": "red",
      "is_extended": false,
      "latitude": 13.746004409350032,
      "longitude": 100.64560053511678
    },
    {
      "station_id": "A5",
      "station_name": "Ramkhamhaeng ARL",
      "station_line": "arl",
      "station_linecolor": "red",
      "is_extended": false,
      "latitude": 13.749561204985838,
      "longitude": 100.60109728071038
    },
    {
      "station_id": "A6",
      "station_name": "Makkasan ARL",
      "station_line": "arl",
      "station_linecolor": "red",
      "is_extended": false,
      "latitude": 13.75835007181401,
      "longitude": 100.56076481053812
    },
    {
      "station_id": "A7",
      "station_name": "Ratchaprarop ARL",
      "station_line": "arl",
      "station_linecolor": "red",
      "is_extended": false,
      "latitude": 13.761253848376082,
      "longitude": 100.54256523334259
    },
    {
      "station_id": "A8",
      "station_name": "Phaya Thai ARL",
      "station_line": "arl",
      "station_linecolor": "red",
      "is_extended": false,
      "latitude": 13.763686630249191,
      "longitude": 100.53387434233079
    },
    {
      "station_id": "BL01",
      "station_name": "Tha Phra MRT",
      "station_line": "mrt",
      "station_linecolor": "blue",
      "is_extended": false,
      "latitude": 13.731494442817219,
      "longitude": 100.4737739810618
    },
    {
      "station_id": "BL02",
      "station_name": "Charan 13 MRT",
      "station_line": "mrt",
      "station_linecolor": "blue",
      "is_extended": false,
      "latitude": 13.744401607301901,
      "longitude": 100.4711395266396
    },
    {
      "station_id": "BL03",
      "station_name": "Fai Chai MRT",
      "station_line": "mrt",
      "station_linecolor": "blue",
      "is_extended": false,
      "latitude": 13.754260567319378,
      "longitude": 100.46907428137094
    },
    {
      "station_id": "BL04",
      "station_name": "Bang Khun Non MRT",
      "station_line": "mrt",
      "station_linecolor": "blue",
      "is_extended": false,
      "latitude": 13.766710663842208,
      "longitude": 100.4740320496383
    },
    {
      "station_id": "BL05",
      "station_name": "Bang Yi Khan MRT",
      "station_line": "mrt",
      "station_linecolor": "blue",
      "is_extended": false,
      "latitude": 13.775785491167852,
      "longitude": 100.485663927079
    },
    {
      "station_id": "BL06",
      "station_name": "Sirindhorn MRT",
      "station_line": "mrt",
      "station_linecolor": "blue",
      "is_extended": false,
      "latitude": 13.783803275981889,
      "longitude": 100.49507269533747
    },
    {
      "station_id": "BL07",
      "station_name": "Bang Phlat MRT",
      "station_line": "mrt",
      "station_linecolor": "blue",
      "is_extended": false,
      "latitude": 13.792203376416715,
      "longitude": 100.50458398180554
    },
    {
      "station_id": "BL08",
      "station_name": "Bang O MRT",
      "station_line": "mrt",
      "station_linecolor": "blue",
      "is_extended": false,
      "latitude": 13.79690559814871,
      "longitude": 100.51213666369202
    },
    {
      "station_id": "BL09",
      "station_name": "Bang Pho MRT",
      "station_line": "mrt",
      "station_linecolor": "blue",
      "is_extended": false,
      "latitude": 13.806249477153719,
      "longitude": 100.52047498197255
    },
    {
      "station_id": "BL10",
      "station_name": "Tao Poon MRT",
      "station_line": "mrt",
      "station_linecolor": "blue",
      "is_extended": false,
      "latitude": 13.806884887217254,
      "longitude": 100.53045198196823
    },
    {
      "station_id": "BL11",
      "station_name": "Bang Sue MRT",
      "station_line": "mrt",
      "station_linecolor": "blue",
      "is_extended": false,
      "latitude": 13.802877876975662,
      "longitude": 100.53967692738516
    },
    {
      "station_id": "BL12",
      "station_name": "Kamphaeng Phet MRT",
      "station_line": "mrt",
      "station_linecolor": "blue",
      "is_extended": false,
      "latitude": 13.796887728047047,
      "longitude": 100.54793332732578
    },
    {
      "station_id": "BL13",
      "station_name": "Chatuchak Park MRT",
      "station_line": "mrt",
      "station_linecolor": "blue",
      "is_extended": false,
      "latitude": 13.804379922895247,
      "longitude": 100.55346668192652
    },
    {
      "station_id": "BL14",
      "station_name": "Phahon Yothin MRT",
      "station_line": "mrt",
      "station_linecolor": "blue",
      "is_extended": false,
      "latitude": 13.813016555265865,
      "longitude": 100.56155281070602
    },
    {
      "station_id": "BL15",
      "station_name": "Lat Phrao MRT",
      "station_line": "mrt",
      "station_linecolor": "blue",
      "is_extended": false,
      "latitude": 13.805605272900033,
      "longitude": 100.57475547287423
    },
    {
      "station_id": "BL16",
      "station_name": "Ratchadaphisek MRT",
      "station_line": "mrt",
      "station_linecolor": "blue",
      "is_extended": false,
      "latitude": 13.800278043165648,
      "longitude": 100.57391105915534
    },
    {
      "station_id": "BL17",
      "station_name": "Sutthisan MRT",
      "station_line": "mrt",
      "station_linecolor": "blue",
      "is_extended": false,
      "latitude": 13.788136690085652,
      "longitude": 100.57452332722174
    },
    {
      "station_id": "BL18",
      "station_name": "Huai Khwang MRT",
      "station_line": "mrt",
      "station_linecolor": "blue",
      "is_extended": false,
      "latitude": 13.778281975698498,
      "longitude": 100.57300145891378
    },
    {
      "station_id": "BL19",
      "station_name": "Thailand Cultural Centre MRT",
      "station_line": "mrt",
      "station_linecolor": "blue",
      "is_extended": false,
      "latitude": 13.765702913863889,
      "longitude": 100.5730136860319
    },
    {
      "station_id": "BL20",
      "station_name": "Phra Ram 9 MRT",
      "station_line": "mrt",
      "station_linecolor": "blue",
      "is_extended": false,
      "latitude": 13.757743095140178,
      "longitude": 100.56440075865818
    },
    {
      "station_id": "BL21",
      "station_name": "Phetchaburi MRT",
      "station_line": "mrt",
      "station_linecolor": "blue",
      "is_extended": false,
      "latitude": 13.747158126501581,
      "longitude": 100.56519404037115
    },
    {
      "station_id": "BL22",
      "station_name": "Sukhumvit MRT",
      "station_line": "mrt",
      "station_linecolor": "blue",
      "is_extended": false,
      "latitude": 13.737349470330004,
      "longitude": 100.5617881266193
    },
    {
      "station_id": "BL23",
      "station_name": "Queen Sirikit National Convention Centre MRT",
      "station_line": "mrt",
      "station_linecolor": "blue",
      "is_extended": false,
      "latitude": 13.723215517771417,
      "longitude": 100.56108817188499
    },
    {
      "station_id": "BL24",
      "station_name": "Khlong Toei MRT",
      "station_line": "mrt",
      "station_linecolor": "blue",
      "is_extended": false,
      "latitude": 13.721450924978273,
      "longitude": 100.55679608551162
    },
    {
      "station_id": "BL25",
      "station_name": "Lumphini MRT",
      "station_line": "mrt",
      "station_linecolor": "blue",
      "is_extended": false,
      "latitude": 13.72433359548904,
      "longitude": 100.54366989011113
    },
    {
      "station_id": "BL26",
      "station_name": "Si Lom MRT",
      "station_line": "mrt",
      "station_linecolor": "blue",
      "is_extended": false,
      "latitude": 13.72740679928504,
      "longitude": 100.53648390378315
    },
    {
      "station_id": "BL27",
      "station_name": "Sam Yan MRT",
      "station_line": "mrt",
      "station_linecolor": "blue",
      "is_extended": false,
      "latitude": 13.733327898225664,
      "longitude": 100.5298511038217
    },
    {
      "station_id": "BL28",
      "station_name": "Hua Lamphong MRT",
      "station_line": "mrt",
      "station_linecolor": "blue",
      "is_extended": false,
      "latitude": 13.735994160776018,
      "longitude": 100.51818117206385
    },
    {
      "station_id": "BL29",
      "station_name": "Wat Mangkon MRT",
      "station_line": "mrt",
      "station_linecolor": "blue",
      "is_extended": false,
      "latitude": 13.741822673875278,
      "longitude": 100.5100464039341
    },
    {
      "station_id": "BL30",
      "station_name": "Sam Yot MRT",
      "station_line": "mrt",
      "station_linecolor": "blue",
      "is_extended": false,
      "latitude": 13.746956374126938,
      "longitude": 100.50168508126856
    },
    {
      "station_id": "BL31",
      "station_name": "Sanam Chai MRT",
      "station_line": "mrt",
      "station_linecolor": "blue",
      "is_extended": false,
      "latitude": 13.745040441326811,
      "longitude": 100.49489422668276
    },
    {
      "station_id": "BL32",
      "station_name": "Itsaraphap MRT",
      "station_line": "mrt",
      "station_linecolor": "blue",
      "is_extended": false,
      "latitude": 13.737211969736327,
      "longitude": 100.48638357207038
    },
    {
      "station_id": "BL33",
      "station_name": "Bang Phai MRT",
      "station_line": "mrt",
      "station_linecolor": "blue",
      "is_extended": false,
      "latitude": 13.723863431952067,
      "longitude": 100.4644832582767
    },
    {
      "station_id": "BL34",
      "station_name": "Bang Wa MRT",
      "station_line": "mrt",
      "station_linecolor": "blue",
      "is_extended": false,
      "latitude": 13.72058972511087,
      "longitude": 100.45661208094856
    },
    {
      "station_id": "BL35",
      "station_name": "Phetkasem 48 MRT",
      "station_line": "mrt",
      "station_linecolor": "blue",
      "is_extended": false,
      "latitude": 13.714615005226165,
      "longitude": 100.44591732634639
    },
    {
      "station_id": "BL36",
      "station_name": "Phasi Charoen MRT",
      "station_line": "mrt",
      "station_linecolor": "blue",
      "is_extended": false,
      "latitude": 13.711785860075315,
      "longitude": 100.43660823994865
    },
    {
      "station_id": "BL37",
      "station_name": "Bang Khae MRT",
      "station_line": "mrt",
      "station_linecolor": "blue",
      "is_extended": false,
      "latitude": 13.711302933800036,
      "longitude": 100.423317871756
    },
    {
      "station_id": "BL38",
      "station_name": "Lak Song MRT",
      "station_line": "mrt",
      "station_linecolor": "blue",
      "is_extended": false,
      "latitude": 13.71083020192932,
      "longitude": 100.40940976652891
    },
    {
      "station_id": "CEN",
      "station_name": "Siam BTS",
      "station_line": "bts",
      "station_linecolor": "lightgreen",
      "is_extended": false,
      "latitude": 13.74608775379938,
      "longitude": 100.53401578125037
    },
    {
      "station_id": "E1",
      "station_name": "Chit Lom BTS",
      "station_line": "bts",
      "station_linecolor": "lightgreen",
      "is_extended": false,
      "latitude": 13.74323128799462,
      "longitude": 100.54507304031672
    },
    {
      "station_id": "E10",
      "station_name": "Bang Chak BTS",
      "station_line": "bts",
      "station_linecolor": "lightgreen",
      "is_extended": false,
      "latitude": 13.694583804659615,
      "longitude": 100.60536650339921
    },
    {
      "station_id": "E11",
      "station_name": "Punnawithi BTS",
      "station_line": "bts",
      "station_linecolor": "lightgreen",
      "is_extended": false,
      "latitude": 13.689765511196482,
      "longitude": 100.6106807169425
    },
    {
      "station_id": "E12",
      "station_name": "Udomsuk BTS",
      "station_line": "bts",
      "station_linecolor": "lightgreen",
      "is_extended": false,
      "latitude": 13.679880240321948,
      "longitude": 100.60940474326465
    },
    {
      "station_id": "E13",
      "station_name": "Bang Na BTS",
      "station_line": "bts",
      "station_linecolor": "lightgreen",
      "is_extended": false,
      "latitude": 13.670955254373157,
      "longitude": 100.60465380306147
    },
    {
      "station_id": "E14",
      "station_name": "Bearing BTS",
      "station_line": "bts",
      "station_linecolor": "lightgreen",
      "is_extended": false,
      "latitude": 13.660356548889503,
      "longitude": 100.60218242570622
    },
    {
      "station_id": "E15",
      "station_name": "Samrong BTS",
      "station_line": "bts",
      "station_linecolor": "lightgreen",
      "is_extended": true,
      "latitude": 13.647680128516765,
      "longitude": 100.59799123917303
    },
    {
      "station_id": "E16",
      "station_name": "Pu Chao BTS",
      "station_line": "bts",
      "station_linecolor": "lightgreen",
      "is_extended": true,
      "latitude": 13.639289266833874,
      "longitude": 100.59057091179126
    },
    {
      "station_id": "E17",
      "station_name": "Chang Erawan BTS",
      "station_line": "bts",
      "station_linecolor": "lightgreen",
      "is_extended": true,
      "latitude": 13.622463064502767,
      "longitude": 100.58876791160928
    },
    {
      "station_id": "E18",
      "station_name": "Royal Thai Naval Academy BTS",
      "station_line": "bts",
      "station_linecolor": "lightgreen",
      "is_extended": true,
      "latitude": 13.606992325810355,
      "longitude": 100.59617589326587
    },
    {
      "station_id": "E19",
      "station_name": "Pak Nam BTS",
      "station_line": "bts",
      "station_linecolor": "lightgreen",
      "is_extended": true,
      "latitude": 13.603610829696395,
      "longitude": 100.59670207955925
    },
    {
      "station_id": "E2",
      "station_name": "Phloen Chit BTS",
      "station_line": "bts",
      "station_linecolor": "lightgreen",
      "is_extended": false,
      "latitude": 13.743171167713719,
      "longitude": 100.55139396303053
    },
    {
      "station_id": "E20",
      "station_name": "Srinagarindra BTS",
      "station_line": "bts",
      "station_linecolor": "lightgreen",
      "is_extended": true,
      "latitude": 13.593246567308775,
      "longitude": 100.60784367945735
    },
    {
      "station_id": "E21",
      "station_name": "Phraek Sa BTS",
      "station_line": "bts",
      "station_linecolor": "lightgreen",
      "is_extended": true,
      "latitude": 13.585460937891156,
      "longitude": 100.60902647025586
    },
    {
      "station_id": "E22",
      "station_name": "Sai Luat BTS",
      "station_line": "bts",
      "station_linecolor": "lightgreen",
      "is_extended": true,
      "latitude": 13.576995338214633,
      "longitude": 100.60668689290263
    },
    {
      "station_id": "E23",
      "station_name": "Kheha BTS",
      "station_line": "bts",
      "station_linecolor": "lightgreen",
      "is_extended": true,
      "latitude": 13.568221149343923,
      "longitude": 100.60489802007211
    },
    {
      "station_id": "E3",
      "station_name": "Nana BTS",
      "station_line": "bts",
      "station_linecolor": "lightgreen",
      "is_extended": false,
      "latitude": 13.740329173802378,
      "longitude": 100.55369159028467
    },
    {
      "station_id": "E4",
      "station_name": "Asok BTS",
      "station_line": "bts",
      "station_linecolor": "lightgreen",
      "is_extended": false,
      "latitude": 13.736665573624121,
      "longitude": 100.55926601296763
    },
    {
      "station_id": "E5",
      "station_name": "Phrom Phong BTS",
      "station_line": "bts",
      "station_linecolor": "lightgreen",
      "is_extended": false,
      "latitude": 13.731677916737103,
      "longitude": 100.57128031742991
    },
    {
      "station_id": "E6",
      "station_name": "Thong Lo BTS",
      "station_line": "bts",
      "station_linecolor": "lightgreen",
      "is_extended": false,
      "latitude": 13.724064573017483,
      "longitude": 100.58196603098737
    },
    {
      "station_id": "E7",
      "station_name": "Ekkamai BTS",
      "station_line": "bts",
      "station_linecolor": "lightgreen",
      "is_extended": false,
      "latitude": 13.718654116895493,
      "longitude": 100.58685291729954
    },
    {
      "station_id": "E8",
      "station_name": "Phra Khanong BTS",
      "station_line": "bts",
      "station_linecolor": "lightgreen",
      "is_extended": false,
      "latitude": 13.714707638796671,
      "longitude": 100.58801879908009
    },
    {
      "station_id": "E9",
      "station_name": "On Nut BTS",
      "station_line": "bts",
      "station_linecolor": "lightgreen",
      "is_extended": false,
      "latitude": 13.703728129948757,
      "longitude": 100.60095080350322
    },
    {
      "station_id": "N1",
      "station_name": "Ratchathewi BTS",
      "station_line": "bts",
      "station_linecolor": "lightgreen",
      "is_extended": false,
      "latitude": 13.751486892894324,
      "longitude": 100.5319475267789
    },
    {
      "station_id": "N10",
      "station_name": "Phahon Yothin 24 BTS",
      "station_line": "bts",
      "station_linecolor": "lightgreen",
      "is_extended": true,
      "latitude": 13.823559999549746,
      "longitude": 100.56539733672993
    },
    {
      "station_id": "N11",
      "station_name": "Ratchayothin BTS",
      "station_line": "bts",
      "station_linecolor": "lightgreen",
      "is_extended": true,
      "latitude": 13.830185217953575,
      "longitude": 100.57084727315505
    },
    {
      "station_id": "N12",
      "station_name": "Sena Nikhom BTS",
      "station_line": "bts",
      "station_linecolor": "lightgreen",
      "is_extended": true,
      "latitude": 13.837566817479395,
      "longitude": 100.57093072324525
    },
    {
      "station_id": "N13",
      "station_name": "Kasetsart University BTS",
      "station_line": "bts",
      "station_linecolor": "lightgreen",
      "is_extended": true,
      "latitude": 13.842830882403867,
      "longitude": 100.57650875967408
    },
    {
      "station_id": "N14",
      "station_name": "Royal Forest Department BTS",
      "station_line": "bts",
      "station_linecolor": "lightgreen",
      "is_extended": true,
      "latitude": 13.852519511855522,
      "longitude": 100.58024839159475
    },
    {
      "station_id": "N15",
      "station_name": "Bang Bua BTS",
      "station_line": "bts",
      "station_linecolor": "lightgreen",
      "is_extended": true,
      "latitude": 13.855846279855253,
      "longitude": 100.5856202280164
    },
    {
      "station_id": "N16",
      "station_name": "11th Infantry Regiment BTS",
      "station_line": "bts",
      "station_linecolor": "lightgreen",
      "is_extended": true,
      "latitude": 13.865221258886157,
      "longitude": 100.59316787360896
    },
    {
      "station_id": "N17",
      "station_name": "Wat Phra Sri Mahathat BTS",
      "station_line": "bts",
      "station_linecolor": "lightgreen",
      "is_extended": true,
      "latitude": 13.875483785497229,
      "longitude": 100.59708092824702
    },
    {
      "station_id": "N18",
      "station_name": "Phahon Yothin 59 BTS",
      "station_line": "bts",
      "station_linecolor": "lightgreen",
      "is_extended": true,
      "latitude": 13.883118763509941,
      "longitude": 100.6004028828777
    },
    {
      "station_id": "N19",
      "station_name": "Sai Yut BTS",
      "station_line": "bts",
      "station_linecolor": "lightgreen",
      "is_extended": true,
      "latitude": 13.889546521901593,
      "longitude": 100.6029240147716
    },
    {
      "station_id": "N2",
      "station_name": "Phaya Thai BTS",
      "station_line": "bts",
      "station_linecolor": "lightgreen",
      "is_extended": false,
      "latitude": 13.757884794541479,
      "longitude": 100.53146834502816
    },
    {
      "station_id": "N20",
      "station_name": "Saphan Mai BTS",
      "station_line": "bts",
      "station_linecolor": "lightgreen",
      "is_extended": true,
      "latitude": 13.898440918575758,
      "longitude": 100.60631792396468
    },
    {
      "station_id": "N21",
      "station_name": "Bhumibol Adulyadej Hospital BTS",
      "station_line": "bts",
      "station_linecolor": "lightgreen",
      "is_extended": true,
      "latitude": 13.909398364801326,
      "longitude": 100.6185052741257
    },
    {
      "station_id": "N22",
      "station_name": "Royal Thai Air Force Museum BTS",
      "station_line": "bts",
      "station_linecolor": "lightgreen",
      "is_extended": true,
      "latitude": 13.921349033744823,
      "longitude": 100.62033401512461
    },
    {
      "station_id": "N23",
      "station_name": "Yaek Kor Por Aor BTS",
      "station_line": "bts",
      "station_linecolor": "lightgreen",
      "is_extended": true,
      "latitude": 13.925554549296667,
      "longitude": 100.62477533793738
    },
    {
      "station_id": "N24",
      "station_name": "Khu Khot BTS",
      "station_line": "bts",
      "station_linecolor": "lightgreen",
      "is_extended": true,
      "latitude": 13.932153384313903,
      "longitude": 100.64682062892996
    },
    {
      "station_id": "N3",
      "station_name": "Victory Monument BTS",
      "station_line": "bts",
      "station_linecolor": "lightgreen",
      "is_extended": false,
      "latitude": 13.764469662708665,
      "longitude": 100.53729122690513
    },
    {
      "station_id": "N4",
      "station_name": "Sanam Pao BTS",
      "station_line": "bts",
      "station_linecolor": "lightgreen",
      "is_extended": false,
      "latitude": 13.772095723304542,
      "longitude": 100.54419394065506
    },
    {
      "station_id": "N5",
      "station_name": "Ari BTS",
      "station_line": "bts",
      "station_linecolor": "lightgreen",
      "is_extended": false,
      "latitude": 13.780825439075091,
      "longitude": 100.54287689074913
    },
    {
      "station_id": "N7",
      "station_name": "Saphan Kwai BTS",
      "station_line": "bts",
      "station_linecolor": "lightgreen",
      "is_extended": false,
      "latitude": 13.793345070989371,
      "longitude": 100.54948724875098
    },
    {
      "station_id": "N8",
      "station_name": "Mo Chit BTS",
      "station_line": "bts",
      "station_linecolor": "lightgreen",
      "is_extended": false,
      "latitude": 13.803046294171311,
      "longitude": 100.55243671374747
    },
    {
      "station_id": "N9",
      "station_name": "Ha Yaek Lad Phrao BTS",
      "station_line": "bts",
      "station_linecolor": "lightgreen",
      "is_extended": true,
      "latitude": 13.815463208719454,
      "longitude": 100.56097733664144
    },
    {
      "station_id": "PP01",
      "station_name": "Khlong Bang Phai MRT",
      "station_line": "mrt",
      "station_linecolor": "purple",
      "is_extended": false,
      "latitude": 13.89221340193892,
      "longitude": 100.40841020572884
    },
    {
      "station_id": "PP02",
      "station_name": "Talat Bang Yai MRT",
      "station_line": "mrt",
      "station_linecolor": "purple",
      "is_extended": false,
      "latitude": 13.879871389423247,
      "longitude": 100.40987272831546
    },
    {
      "station_id": "PP03",
      "station_name": "Sam Yaek Bang Yai MRT",
      "station_line": "mrt",
      "station_linecolor": "purple",
      "is_extended": false,
      "latitude": 13.875248891167354,
      "longitude": 100.42044677369296
    },
    {
      "station_id": "PP04",
      "station_name": "Bang Phlu MRT",
      "station_line": "mrt",
      "station_linecolor": "purple",
      "is_extended": false,
      "latitude": 13.875332476690982,
      "longitude": 100.43176716916881
    },
    {
      "station_id": "PP05",
      "station_name": "Bang Rak Yai MRT",
      "station_line": "mrt",
      "station_linecolor": "purple",
      "is_extended": false,
      "latitude": 13.877204085659987,
      "longitude": 100.44777918734806
    },
    {
      "station_id": "PP06",
      "station_name": "Bang Rak Noi - Tha It MRT",
      "station_line": "mrt",
      "station_linecolor": "purple",
      "is_extended": false,
      "latitude": 13.874427875339336,
      "longitude": 100.45617400551606
    },
    {
      "station_id": "PP07",
      "station_name": "Sai Ma MRT",
      "station_line": "mrt",
      "station_linecolor": "purple",
      "is_extended": false,
      "latitude": 13.871683523582483,
      "longitude": 100.46629408273697
    },
    {
      "station_id": "PP08",
      "station_name": "Phra Nangklao Bridge MRT",
      "station_line": "mrt",
      "station_linecolor": "purple",
      "is_extended": false,
      "latitude": 13.871416625100903,
      "longitude": 100.48329780999728
    },
    {
      "station_id": "PP09",
      "station_name": "Yaek Nonthaburi 1 MRT",
      "station_line": "mrt",
      "station_linecolor": "purple",
      "is_extended": false,
      "latitude": 13.868046397095506,
      "longitude": 100.49280551450255
    },
    {
      "station_id": "PP10",
      "station_name": "Bang Kraso MRT",
      "station_line": "mrt",
      "station_linecolor": "purple",
      "is_extended": false,
      "latitude": 13.860891930600086,
      "longitude": 100.50638871899001
    },
    {
      "station_id": "PP11",
      "station_name": "Nonthaburi Civic Center MRT",
      "station_line": "mrt",
      "station_linecolor": "purple",
      "is_extended": false,
      "latitude": 13.859134998883464,
      "longitude": 100.51239025988856
    },
    {
      "station_id": "PP12",
      "station_name": "Ministry of Public Health MRT",
      "station_line": "mrt",
      "station_linecolor": "purple",
      "is_extended": false,
      "latitude": 13.847314247342114,
      "longitude": 100.51539925065285
    },
    {
      "station_id": "PP13",
      "station_name": "Yaek Tiwanon MRT",
      "station_line": "mrt",
      "station_linecolor": "purple",
      "is_extended": false,
      "latitude": 13.84003499026566,
      "longitude": 100.51729156417781
    },
    {
      "station_id": "PP14",
      "station_name": "Wong Sawang MRT",
      "station_line": "mrt",
      "station_linecolor": "purple",
      "is_extended": false,
      "latitude": 13.829766878415423,
      "longitude": 100.52599698225262
    },
    {
      "station_id": "PP15",
      "station_name": "Bang Son MRT",
      "station_line": "mrt",
      "station_linecolor": "purple",
      "is_extended": false,
      "latitude": 13.819395593363906,
      "longitude": 100.53279792758569
    },
    {
      "station_id": "PP16",
      "station_name": "Tao Poon MRT",
      "station_line": "mrt",
      "station_linecolor": "purple",
      "is_extended": false,
      "latitude": 13.805217868028816,
      "longitude": 100.53113862742092
    },
    {
      "station_id": "S1",
      "station_name": "Ratchadamri BTS",
      "station_line": "bts",
      "station_linecolor": "darkgreen",
      "is_extended": false,
      "latitude": 13.744399553717368,
      "longitude": 100.53940911236552
    },
    {
      "station_id": "S10",
      "station_name": "Talad Plu BTS",
      "station_line": "bts",
      "station_linecolor": "darkgreen",
      "is_extended": false,
      "latitude": 13.726719924331608,
      "longitude": 100.47675991206717
    },
    {
      "station_id": "S11",
      "station_name": "Wuttakat BTS",
      "station_line": "bts",
      "station_linecolor": "darkgreen",
      "is_extended": false,
      "latitude": 13.71937144694258,
      "longitude": 100.46945155758927
    },
    {
      "station_id": "S12",
      "station_name": "Bang Wa BTS",
      "station_line": "bts",
      "station_linecolor": "darkgreen",
      "is_extended": false,
      "latitude": 13.725738364268715,
      "longitude": 100.45950322598381
    },
    {
      "station_id": "S2",
      "station_name": "Sala Daeng BTS",
      "station_line": "bts",
      "station_linecolor": "darkgreen",
      "is_extended": false,
      "latitude": 13.734186606766997,
      "longitude": 100.53466633500454
    },
    {
      "station_id": "S3",
      "station_name": "Chong Nonsi BTS",
      "station_line": "bts",
      "station_linecolor": "darkgreen",
      "is_extended": false,
      "latitude": 13.730092650295491,
      "longitude": 100.52861456664476
    },
    {
      "station_id": "S4",
      "station_name": "Saint Louis BTS",
      "station_line": "bts",
      "station_linecolor": "darkgreen",
      "is_extended": false,
      "latitude": 13.720162447443604,
      "longitude": 100.52738343551843
    },
    {
      "station_id": "S5",
      "station_name": "Surasak BTS",
      "station_line": "bts",
      "station_linecolor": "darkgreen",
      "is_extended": false,
      "latitude": 13.724903737309301,
      "longitude": 100.52210215766259
    },
    {
      "station_id": "S6",
      "station_name": "Saphan Taksin BTS",
      "station_line": "bts",
      "station_linecolor": "darkgreen",
      "is_extended": false,
      "latitude": 13.725332047813877,
      "longitude": 100.51433717867866
    },
    {
      "station_id": "S7",
      "station_name": "Krung Thon Buri BTS",
      "station_line": "bts",
      "station_linecolor": "darkgreen",
      "is_extended": false,
      "latitude": 13.72721692988602,
      "longitude": 100.50395980321768
    },
    {
      "station_id": "S8",
      "station_name": "Wongwian Yai BTS",
      "station_line": "bts",
      "station_linecolor": "darkgreen",
      "is_extended": false,
      "latitude": 13.726719924331608,
      "longitude": 100.49547620230776
    },
    {
      "station_id": "S9",
      "station_name": "Pho Nimit BTS",
      "station_line": "bts",
      "station_linecolor": "darkgreen",
      "is_extended": false,
      "latitude": 13.72559967463935,
      "longitude": 100.48594451212725
    },
    {
      "station_id": "W1",
      "station_name": "National Stadium BTS",
      "station_line": "bts",
      "station_linecolor": "darkgreen",
      "is_extended": false,
      "latitude": 13.754784492353917,
      "longitude": 100.52946873521685
    }
  ]